sep=,
CUSTOM.date [local],CUSTOM.updateTime [local],OSD.flyTime,OSD.flyTime [s],OSD.latitude,OSD.longitude,OSD.height [ft],OSD.heightMax [ft],OSD.vpsHeight [ft],OSD.altitude [ft],OSD.mileage [ft],OSD.hSpeed [MPH],OSD.hSpeedMax [MPH],OSD.xSpeed [MPH],OSD.xSpeedMax [MPH],OSD.ySpeed [MPH],OSD.ySpeedMax [MPH],OSD.zSpeed [MPH],OSD.zSpeedMax [MPH],OSD.pitch,OSD.roll,OSD.yaw,OSD.yaw [360],OSD.directionOfTravel,OSD.flycState,OSD.flycCommand,OSD.flightAction,OSD.gpsNum,OSD.gpsLevel,OSD.isGPSUsed,OSD.nonGPSCause,OSD.droneType,OSD.isSwaveWork,OSD.waveError,OSD.goHomeStatus,OSD.batteryType,OSD.ctrlDevice,OSD.isOnGround,OSD.isMotorOn,OSD.isMotorBlocked,OSD.motorStartFailedCause,OSD.motorFailReason,OSD.isImuPreheated,OSD.imuInitFailReason,OSD.isAcceletorOverRange,OSD.isBarometerDeadInAir,OSD.isCompassError,OSD.isGoHomeHeightModified,OSD.canIOCWork,OSD.isNotEnoughForce,OSD.isOutOfLimit,OSD.isPropellerCatapult,OSD.isVibrating,OSD.isVisionUsed,OSD.voltageWarning,GIMBAL.mode,GIMBAL.pitch,GIMBAL.roll,GIMBAL.yaw,GIMBAL.yaw [360],GIMBAL.isPitchAtLimit,GIMBAL.isRollAtLimit,GIMBAL.isYawAtLimit,GIMBAL.isStuck,CAMERA.isPhoto,CAMERA.isVideo,CAMERA.filename,CAMERA.sdCardIsInserted,CAMERA.sdCardState,RC.downlinkSignal,RC.uplinkSignal,RC.aileron,RC.elevator,RC.throttle,RC.rudder,RC.mode,RC.goHomeDepressed,RC.recordDepressed,RC.shutterDepressed,RC.playbackDepressed,RC.wheelDepressed,RC.wheelOffset,RC.custom1Depressed,RC.custom2Depressed,RC.custom3Depressed,RC.custom4Depressed,BATTERY.chargeLevel,BATTERY.currentPV [V],BATTERY.currentCapacity [mAh],BATTERY.fullCapacity [mAh],BATTERY.voltage [V],BATTERY.isCellVoltageEstimated,BATTERY.cellVoltage1 [V],BATTERY.cellVoltage2 [V],BATTERY.cellVoltage3 [V],BATTERY.cellVoltage4 [V],BATTERY.maxCellVoltageDeviation,BATTERY.isCellVoltageDeviationHigh,BATTERY.isVoltageLow,BATTERY.current [A],BATTERY.temperature [F],BATTERY.minTemperature [F],BATTERY.maxTemperature [F],BATTERY.usefulTime [s],BATTERY.goHomeTime [s],BATTERY.landTime [s],BATTERY.goHomeBattery,BATTERY.landBattery,BATTERY.safeFlyRadius,BATTERY.volumeConsume,BATTERY.status,BATTERY.goHomeStatus,BATTERY.goHomeCountdown,BATTERY.lowWarning,BATTERY.lowWarningGoHome,BATTERY.seriousLowWarning,BATTERY.seriousLowWarningLanding,BATTERY.timesCharged,MC.failSafeAction,MC.isObstacleAvoidanceEnabled,MC.isCollisionAvoidanceEnabled,MC.isRthObstacleAvoidanceEnabled,MC.isBraking,MC.isAvoidingObstacle,MC.isAvoidingActiveObstacle,MC.isAscentLimitedByObstacle,MC.isLandingConfirmationNeeded,MC.atLowAltitudeLimit,MC.atDistanceLimit,MC.atAirportAltitudeLimit,MC.atAirportBoundary,HOME.latitude,HOME.longitude,HOME.distance [ft],HOME.height [ft],HOME.heightLimit [ft],HOME.isHomeRecord,HOME.goHomeMode,HOME.aircraftHeadDirection,HOME.isDynamicHomePointEnabled,HOME.isReachedLimitDistance,HOME.isReachedLimitHeight,HOME.isCompassCalibrating,HOME.compassCalibrationState,HOME.isMultipleFlightModeEnabled,HOME.isBeginnerMode,HOME.isIOCEnabled,HOME.iocMode,HOME.goHomeHeight [ft],HOME.courseLockAngle,HOME.forceLandingHeight [ft],HOME.dataRecorderFileIndex,WEATHER.windDirection,WEATHER.windRelativeDirection,WEATHER.windSpeed [MPH],WEATHER.maxWindSpeed [MPH],WEATHER.windStrength,WEATHER.isFacingWind,WEATHER.isFlyingIntoWind,RECOVER.appType,RECOVER.appVersion,RECOVER.aircraftName,RECOVER.aircraftSerial,RECOVER.cameraSerial,RECOVER.rcSerial,RECOVER.batterySerial,DETAILS.totalTime [s],DETAILS.totalDistance [ft],DETAILS.maxHeight [ft],DETAILS.maxHorizontalSpeed [MPH],DETAILS.maxVerticalSpeed [MPH],DETAILS.photoNum,DETAILS.videoTime [s],DETAILS.aircraftName,DETAILS.aircraftSerial,DETAILS.cameraSerial,DETAILS.rcSerial,DETAILS.batterySerial,DETAILS.appName,DETAILS.appType,DETAILS.appVersion,DETAILS.guid,SERIAL.flightController,SERIAL.camera,SERIAL.gimbal,SERIAL.rc,SERIAL.battery,APPGPS.latitude,APPGPS.longitude,APPGPS.accuracy,APP.tip,APP.warning
10/11/2024,3:32:34.21 AM,0m 0.0s,0.0,-33.7547715747393,150.73807846812,0,0,,107,0,0,0,0,0,0,0,0,0,4.6,-0.8,27.4,27.4,,P-GPS (Brake),Other,,22,5,True,,Air 3,False,False,,Smart,RC,True,True,False,,,True,,False,False,False,False,False,False,False,False,False,False,0,Follow Yaw,0,0,12.8,12.8,False,False,False,False,False,False,,True,Normal,,,364,364,364,1684,C,False,False,False,False,False,0,False,False,False,False,72,15.566,2814,3935,15.566,True,3.892,3.892,3.892,3.892,,False,False,0.987,93.4,93.3,93.3,,,,,,,,,Idle,,,,,,6,Go Home,True,True,True,False,False,False,False,False,False,False,False,False,,,,,,False,,,False,False,False,False,,False,False,False,,,,,,,,,,Calm,False,False,,1.12.0,DJI Air 3,1581F6N8C23AR003,6K5FL8K211X7G9,6UZBLAV02102UE,6NVPLASDA003CY,37.5,0.0,3.2,0.223694,5.368656,0,0,DJI Air 3,1581F6N8C23AR003,6K5FL8K211X7G9,6UZBLAV02102UE,6NVPLASDA003CY,DJI Fly,,1.12.0,04601484-5FA3-0032-463F-F2EEFC3903B3,1581F6N8C23AR0035EE6,,,,,,,,Aircraft in Altitude Zone (500 m). Fly with caution (Code: 190001).; Flight mode changed to P-GPS (Brake).,
10/11/2024,3:32:34.33 AM,0m 0.1s,0.1,-33.7547715710897,150.738078472746,0,0,,107,0,0,0,0,0,0,0,0,0,4.6,-0.8,27.3,27.3,,Starting Motors,Other,,22,5,True,,Air 3,False,False,,Smart,RC,True,True,False,,,True,,False,False,False,False,False,False,False,False,False,False,0,Follow Yaw,0,0,12.8,12.8,False,False,False,False,False,False,,True,Normal,,,364,364,364,1684,C,False,False,False,False,False,0,False,False,False,False,72,15.566,2814,3935,15.566,True,3.892,3.892,3.892,3.892,,False,False,0.987,93.4,93.3,93.3,,,,,,,,,Idle,,,,,,6,Go Home,True,True,True,False,False,False,False,False,False,False,False,False,,,,,,False,,,False,False,False,False,,False,False,False,,,,,,,,,,Calm,False,False,,1.12.0,DJI Air 3,1581F6N8C23AR003,6K5FL8K211X7G9,6UZBLAV02102UE,6NVPLASDA003CY,37.5,0.0,3.2,0.223694,5.368656,0,0,DJI Air 3,1581F6N8C23AR003,6K5FL8K211X7G9,6UZBLAV02102UE,6NVPLASDA003CY,DJI Fly,,1.12.0,04601484-5FA3-0032-463F-F2EEFC3903B3,1581F6N8C23AR0035EE6,,,,,,,,Aircraft not in flight. Vision systems and obstacle avoidance disabled (Code: 180059).; Flight mode changed to Starting Motors.,
10/11/2024,3:32:34.43 AM,0m 0.2s,0.2,-33.7547715604965,150.738078477284,0,0,,107,0,0,0,0,0,0,0,0,0,4.6,-0.8,27.3,27.3,,Starting Motors,Other,,22,5,True,,Air 3,False,False,,Smart,RC,True,True,False,,,True,,False,False,False,False,False,False,False,False,False,False,0,Follow Yaw,0,0,12.8,12.8,False,False,False,False,False,False,,True,Normal,,,364,364,364,1684,C,False,False,False,False,False,0,False,False,False,False,72,15.565,2814,3935,15.565,False,3.891,3.891,3.891,3.892,0.001,False,False,1.327,93.4,93.3,93.3,,,,,,,,,Idle,,,,,,6,Go Home,True,True,True,False,False,False,False,False,False,False,False,False,,,,,,False,,,False,False,False,False,,False,False,False,,,,,,,,,,Calm,False,False,,1.12.0,DJI Air 3,1581F6N8C23AR003,6K5FL8K211X7G9,6UZBLAV02102UE,6NVPLASDA003CY,37.5,0.0,3.2,0.223694,5.368656,0,0,DJI Air 3,1581F6N8C23AR003,6K5FL8K211X7G9,6UZBLAV02102UE,6NVPLASDA003CY,DJI Fly,,1.12.0,04601484-5FA3-0032-463F-F2EEFC3903B3,1581F6N8C23AR0035EE6,,,,,,,,,
10/11/2024,3:32:34.53 AM,0m 0.3s,0.3,-33.7547715543218,150.738078479496,0,0,0.3,107,0,0,0,0,0,0,0,0,0,4.6,-0.8,27.3,27.3,,Starting Motors,Other,,22,5,True,,Air 3,True,False,,Smart,RC,True,True,False,,,True,,False,False,False,False,False,False,False,False,False,False,0,Follow Yaw,0,0,12.7,12.7,False,False,False,False,False,False,,True,Normal,,,364,364,364,1684,C,False,False,False,False,False,0,False,False,False,False,72,15.565,2814,3935,15.565,False,3.891,3.891,3.891,3.892,0.001,False,False,1.327,93.4,93.3,93.3,,,,,,,,,Idle,,,,,,6,Go Home,True,True,True,False,False,False,False,False,False,False,False,False,,,,,,False,,,False,False,False,False,,False,False,False,,,,,,,,,,Calm,False,False,,1.12.0,DJI Air 3,1581F6N8C23AR003,6K5FL8K211X7G9,6UZBLAV02102UE,6NVPLASDA003CY,37.5,0.0,3.2,0.223694,5.368656,0,0,DJI Air 3,1581F6N8C23AR003,6K5FL8K211X7G9,6UZBLAV02102UE,6NVPLASDA003CY,DJI Fly,,1.12.0,04601484-5FA3-0032-463F-F2EEFC3903B3,1581F6N8C23AR0035EE6,,,,,,,,,
10/11/2024,3:32:34.63 AM,0m 0.4s,0.4,-33.7547715445168,150.738078479323,0,0,0.3,107,0,0,0,0,0,0,0,0,0,4.6,-0.8,27.3,27.3,,Starting Motors,Other,,22,5,True,,Air 3,True,False,,Smart,RC,True,True,False,,,True,,False,False,False,False,False,False,False,False,False,False,0,Follow Yaw,0,0,12.6,12.6,False,False,False,False,False,False,,True,Normal,100,,364,364,364,1684,C,False,False,False,False,False,0,False,False,False,False,72,15.565,2814,3935,15.565,False,3.891,3.891,3.891,3.892,0.001,False,False,1.327,93.4,93.3,93.3,,,,,,,,,Idle,,,,,,6,Go Home,True,True,True,False,False,False,False,False,False,False,False,False,,,,,,False,,,False,False,False,False,,False,False,False,,,,,,,,,,Calm,False,False,,1.12.0,DJI Air 3,1581F6N8C23AR003,6K5FL8K211X7G9,6UZBLAV02102UE,6NVPLASDA003CY,37.5,0.0,3.2,0.223694,5.368656,0,0,DJI Air 3,1581F6N8C23AR003,6K5FL8K211X7G9,6UZBLAV02102UE,6NVPLASDA003CY,DJI Fly,,1.12.0,04601484-5FA3-0032-463F-F2EEFC3903B3,1581F6N8C23AR0035EE6,,,,,,,,,
10/11/2024,3:32:34.73 AM,0m 0.5s,0.5,-33.7547715323837,150.738078474366,0,0,0.3,107,0,0,0,0,0,0,0,0,0,4.6,-0.8,27.3,27.3,,Starting Motors,Other,,22,5,True,,Air 3,True,False,,Smart,RC,True,True,False,,,True,,False,False,False,False,False,False,False,False,False,False,0,Follow Yaw,0,0,12.6,12.6,False,False,False,False,False,False,,True,Normal,100,,364,364,364,1684,C,False,False,False,False,False,0,False,False,False,False,72,15.565,2814,3935,15.565,False,3.891,3.891,3.891,3.892,0.001,False,False,1.327,93.4,93.3,93.3,,,,,,,,,Idle,,,,,,6,Go Home,True,True,True,False,False,False,False,False,False,False,False,False,,,,,,False,,,False,False,False,False,,False,False,False,,,,,,,,,,Calm,False,False,,1.12.0,DJI Air 3,1581F6N8C23AR003,6K5FL8K211X7G9,6UZBLAV02102UE,6NVPLASDA003CY,37.5,0.0,3.2,0.223694,5.368656,0,0,DJI Air 3,1581F6N8C23AR003,6K5FL8K211X7G9,6UZBLAV02102UE,6NVPLASDA003CY,DJI Fly,,1.12.0,04601484-5FA3-0032-463F-F2EEFC3903B3,1581F6N8C23AR0035EE6,,,,,,,,,
10/11/2024,3:32:34.84 AM,0m 0.6s,0.6,-33.754771560352,150.738078482609,0,0,0.3,107,0,0,0,0,0,0,0,0,0,4.6,-0.8,27.4,27.4,,Starting Motors,Other,,22,5,True,,Air 3,True,False,,Smart,RC,True,True,False,,,True,,False,False,False,False,False,False,False,False,False,False,0,Follow Yaw,0,0,12.6,12.6,False,False,False,False,False,False,,True,Normal,100,100,364,364,364,1684,C,False,False,False,False,False,0,False,False,False,False,72,15.565,2814,3935,15.565,False,3.891,3.891,3.891,3.892,0.001,False,False,1.327,93.4,93.3,93.3,,,,,,,,,Idle,,,,,,6,Go Home,True,True,True,False,False,False,False,False,False,False,False,False,,,,,,False,,,False,False,False,False,,False,False,False,,,,,,,,,,Calm,False,False,,1.12.0,DJI Air 3,1581F6N8C23AR003,6K5FL8K211X7G9,6UZBLAV02102UE,6NVPLASDA003CY,37.5,0.0,3.2,0.223694,5.368656,0,0,DJI Air 3,1581F6N8C23AR003,6K5FL8K211X7G9,6UZBLAV02102UE,6NVPLASDA003CY,DJI Fly,,1.12.0,04601484-5FA3-0032-463F-F2EEFC3903B3,1581F6N8C23AR0035EE6,,,,,,,,,
10/11/2024,3:32:34.94 AM,0m 0.7s,0.7,-33.7547715502889,150.738078481923,0,0,0.3,107,0,0,0,0,0,0,0,0,0,4.6,-0.8,27.3,27.3,,Starting Motors,Other,,22,5,True,,Air 3,True,False,,Smart,RC,True,True,False,,,True,,False,False,False,False,False,False,False,False,False,False,0,Follow Yaw,0,0,12.5,12.5,False,False,False,False,False,False,,True,Normal,100,100,364,364,364,1684,C,False,False,False,False,False,0,False,False,False,False,72,15.565,2814,3935,15.565,False,3.891,3.891,3.891,3.892,0.001,False,False,1.327,93.4,93.3,93.3,,,,,,,,,Idle,,,,,,6,Go Home,True,True,True,False,False,False,False,False,False,False,False,False,-33.7547774608723,150.738074033112,2.5,,328.0,True,1,1,False,False,False,False,,True,False,False,,196.8,,16.4,37,,,,,Calm,False,False,,1.12.0,DJI Air 3,1581F6N8C23AR003,6K5FL8K211X7G9,6UZBLAV02102UE,6NVPLASDA003CY,37.5,0.0,3.2,0.223694,5.368656,0,0,DJI Air 3,1581F6N8C23AR003,6K5FL8K211X7G9,6UZBLAV02102UE,6NVPLASDA003CY,DJI Fly,,1.12.0,04601484-5FA3-0032-463F-F2EEFC3903B3,1581F6N8C23AR0035EE6,,,,,,,,Data Recorder File Index is 37.; Set Return to Home (RTH) altitude to 60 m (197 ft).; Set maximum flight altitude to 100 m (328 ft).,
10/11/2024,3:32:35.04 AM,0m 0.8s,0.8,-33.754771551832,150.738078497893,0,0,0.3,107,0,0,0,0,0,0,0,0,0,4.6,-0.8,27.3,27.3,,Starting Motors,Other,,22,5,True,,Air 3,True,False,,Smart,RC,True,True,False,,,True,,False,False,False,False,False,False,False,False,False,False,0,Follow Yaw,0,0,12.5,12.5,False,False,False,False,False,False,,True,Normal,100,100,364,364,364,1684,C,False,False,False,False,False,0,False,False,False,False,72,15.565,2814,3935,15.565,False,3.891,3.891,3.891,3.892,0.001,False,False,1.327,93.4,93.3,93.3,,,,,,,,,Idle,,,,,,6,Go Home,True,True,True,False,False,False,False,False,False,False,False,False,-33.7547774608723,150.738074033112,2.5,,328.0,True,1,1,False,False,False,False,,True,False,False,,196.8,,16.4,37,,,,,Calm,False,False,,1.12.0,DJI Air 3,1581F6N8C23AR003,6K5FL8K211X7G9,6UZBLAV02102UE,6NVPLASDA003CY,37.5,0.0,3.2,0.223694,5.368656,0,0,DJI Air 3,1581F6N8C23AR003,6K5FL8K211X7G9,6UZBLAV02102UE,6NVPLASDA003CY,DJI Fly,,1.12.0,04601484-5FA3-0032-463F-F2EEFC3903B3,1581F6N8C23AR0035EE6,,,,,,,,,
10/11/2024,3:32:35.14 AM,0m 0.9s,0.9,-33.7547715474135,150.738078504113,0,0,0.3,107,0,0,0,0,0,0,0,0,0,4.6,-0.8,27.3,27.3,,Starting Motors,Other,,22,5,True,,Air 3,True,False,,Smart,RC,True,True,False,,,True,,False,False,False,False,False,False,False,False,False,False,0,Follow Yaw,0,0,12.5,12.5,False,False,False,False,False,False,,True,Normal,100,100,364,364,364,1684,C,False,False,False,False,False,0,False,False,False,False,72,15.565,2814,3935,15.565,False,3.891,3.891,3.891,3.892,0.001,False,False,1.327,93.4,93.3,93.3,,,,,,,,,Idle,,,,,,6,Go Home,True,True,True,False,False,False,False,False,False,False,False,False,-33.7547774608723,150.738074033112,2.5,,328.0,True,1,1,False,False,False,False,,True,False,False,,196.8,,16.4,37,,,,,Calm,False,False,,1.12.0,DJI Air 3,1581F6N8C23AR003,6K5FL8K211X7G9,6UZBLAV02102UE,6NVPLASDA003CY,37.5,0.0,3.2,0.223694,5.368656,0,0,DJI Air 3,1581F6N8C23AR003,6K5FL8K211X7G9,6UZBLAV02102UE,6NVPLASDA003CY,DJI Fly,,1.12.0,04601484-5FA3-0032-463F-F2EEFC3903B3,1581F6N8C23AR0035EE6,,,,,,,,,
10/11/2024,3:32:35.24 AM,0m 1.0s,1.0,-33.7547715663521,150.738078477452,0,0,0.3,107,0,0,0,0,0,0,0,0,0,4.6,-0.8,27.4,27.4,,Starting Motors,Other,,22,5,True,,Air 3,True,False,,Smart,RC,True,True,False,,,True,,False,False,False,False,False,False,False,False,False,False,0,Follow Yaw,0,0,12.5,12.5,False,False,False,False,False,False,,True,Normal,100,100,364,364,364,1684,C,False,False,False,False,False,0,False,False,False,False,72,15.565,2814,3935,15.565,False,3.891,3.891,3.891,3.892,0.001,False,False,1.327,93.4,93.3,93.3,,,,,,,,,Idle,,,,,,6,Go Home,True,True,True,False,False,False,False,False,False,False,False,False,-33.7547774608723,150.738074033112,2.5,,328.0,True,1,1,False,False,False,False,,True,False,False,,196.8,,16.4,37,,,,,Calm,False,False,,1.12.0,DJI Air 3,1581F6N8C23AR003,6K5FL8K211X7G9,6UZBLAV02102UE,6NVPLASDA003CY,37.5,0.0,3.2,0.223694,5.368656,0,0,DJI Air 3,1581F6N8C23AR003,6K5FL8K211X7G9,6UZBLAV02102UE,6NVPLASDA003CY,DJI Fly,,1.12.0,04601484-5FA3-0032-463F-F2EEFC3903B3,1581F6N8C23AR0035EE6,,,,,,,,,
10/11/2024,3:32:35.35 AM,0m 1.1s,1.1,-33.7547715735196,150.738078477708,0,0,0.3,107,0,0,0,0,0,0,0,0,0,4.6,-0.8,27.3,27.3,,Starting Motors,Other,,22,5,True,,Air 3,True,False,,Smart,RC,True,True,False,,,True,,False,False,False,False,False,False,False,False,False,False,0,Follow Yaw,0,0,12.5,12.5,False,False,False,False,False,False,,True,Normal,100,100,364,364,364,1684,C,False,False,False,False,False,0,False,False,False,False,72,15.565,2814,3935,15.565,False,3.891,3.891,3.891,3.892,0.001,False,False,1.327,93.4,93.3,93.3,,,,,,,,,Idle,,,,,,6,Go Home,True,True,True,False,False,False,False,False,False,False,False,False,-33.7547774608723,150.738074033112,2.5,,328.0,True,1,1,False,False,False,False,,True,False,False,,196.8,,16.4,37,,,,,Calm,False,False,,1.12.0,DJI Air 3,1581F6N8C23AR003,6K5FL8K211X7G9,6UZBLAV02102UE,6NVPLASDA003CY,37.5,0.0,3.2,0.223694,5.368656,0,0,DJI Air 3,1581F6N8C23AR003,6K5FL8K211X7G9,6UZBLAV02102UE,6NVPLASDA003CY,DJI Fly,,1.12.0,04601484-5FA3-0032-463F-F2EEFC3903B3,1581F6N8C23AR0035EE6,,,,,,,,,
10/11/2024,3:32:35.45 AM,0m 1.2s,1.2,-33.7547715579028,150.738078476955,0,0,0.3,107,0,0,0,0,0,0,0,0,0,4.6,-0.8,27.3,27.3,,Starting Motors,Other,,22,5,True,,Air 3,True,False,,Smart,RC,True,True,False,,,True,,False,False,False,False,False,False,False,False,False,False,0,Follow Yaw,0,0,12.5,12.5,False,False,False,False,False,False,,True,Normal,100,100,364,364,364,1684,C,False,False,False,False,False,0,False,False,False,False,72,15.473,2814,3935,15.473,False,3.869,3.868,3.868,3.868,0.001,False,False,3.79,93.4,93.3,93.3,,,,,,,,,Idle,,,,,,6,Go Home,True,True,True,False,False,False,False,False,False,False,False,False,-33.7547774608723,150.738074033112,2.5,,328.0,True,1,1,False,False,False,False,,True,False,False,,196.8,,16.4,37,,,,,Calm,False,False,,1.12.0,DJI Air 3,1581F6N8C23AR003,6K5FL8K211X7G9,6UZBLAV02102UE,6NVPLASDA003CY,37.5,0.0,3.2,0.223694,5.368656,0,0,DJI Air 3,1581F6N8C23AR003,6K5FL8K211X7G9,6UZBLAV02102UE,6NVPLASDA003CY,DJI Fly,,1.12.0,04601484-5FA3-0032-463F-F2EEFC3903B3,1581F6N8C23AR0035EE6,,,,,,,,,
10/11/2024,3:32:35.51 AM,0m 1.3s,1.3,-33.7547715513822,150.738078481455,0,0,0.3,107,0,0,0,0,0,0,0,0,0,4.6,-0.8,27.3,27.3,,Starting Motors,Other,,22,5,True,,Air 3,True,False,,Smart,RC,True,True,False,,,True,,False,False,False,False,False,False,False,False,False,False,0,Follow Yaw,0,0,12.5,12.5,False,False,False,False,False,False,,True,Normal,100,100,364,364,364,1684,C,False,False,False,False,False,0,False,False,False,False,72,15.473,2814,3935,15.473,False,3.869,3.868,3.868,3.868,0.001,False,False,3.79,93.4,93.3,93.3,,,,,,,,,Idle,,,,,,6,Go Home,True,True,True,False,False,False,False,False,False,False,False,False,-33.7547774608723,150.738074033112,2.5,,328.0,True,1,1,False,False,False,False,,True,False,False,,196.8,,16.4,37,,,,,Calm,False,False,,1.12.0,DJI Air 3,1581F6N8C23AR003,6K5FL8K211X7G9,6UZBLAV02102UE,6NVPLASDA003CY,37.5,0.0,3.2,0.223694,5.368656,0,0,DJI Air 3,1581F6N8C23AR003,6K5FL8K211X7G9,6UZBLAV02102UE,6NVPLASDA003CY,DJI Fly,,1.12.0,04601484-5FA3-0032-463F-F2EEFC3903B3,1581F6N8C23AR0035EE6,,,,,,,,,
10/11/2024,3:32:35.61 AM,0m 1.4s,1.4,-33.7547715442887,150.73807847776,0,0,0.3,107,0,0,0,0,0,0,0,0,0,4.6,-0.8,27.3,27.3,,Starting Motors,Other,,22,5,True,,Air 3,True,False,,Smart,RC,True,True,False,,,True,,False,False,False,False,False,False,False,False,False,False,0,Follow Yaw,0,0,12.5,12.5,False,False,False,False,False,False,,True,Normal,100,100,364,364,364,1684,C,False,False,False,False,False,0,False,False,False,False,72,15.473,2814,3935,15.473,False,3.869,3.868,3.868,3.868,0.001,False,False,3.79,93.4,93.3,93.3,,,,,,,,,Idle,,,,,,6,Go Home,True,True,True,False,False,False,False,False,False,False,False,False,-33.7547774608723,150.738074033112,2.5,,328.0,True,1,1,False,False,False,False,,True,False,False,,196.8,,16.4,37,,,,,Calm,False,False,,1.12.0,DJI Air 3,1581F6N8C23AR003,6K5FL8K211X7G9,6UZBLAV02102UE,6NVPLASDA003CY,37.5,0.0,3.2,0.223694,5.368656,0,0,DJI Air 3,1581F6N8C23AR003,6K5FL8K211X7G9,6UZBLAV02102UE,6NVPLASDA003CY,DJI Fly,,1.12.0,04601484-5FA3-0032-463F-F2EEFC3903B3,1581F6N8C23AR0035EE6,,,,,,,,,
10/11/2024,3:32:35.71 AM,0m 1.5s,1.5,-33.7547715310376,150.738078467282,0,0,0.3,107,0,0,0,0,0,0,0,0,0,4.6,-0.8,27.3,27.3,,Starting Motors,Other,,22,5,True,,Air 3,True,False,,Smart,RC,True,True,False,,,True,,False,False,False,False,False,False,False,False,False,False,0,Follow Yaw,0,0,12.5,12.5,False,False,False,False,False,False,,True,Normal,100,100,364,364,364,1684,C,False,False,False,False,False,0,False,False,False,False,72,15.473,2814,3935,15.473,False,3.869,3.868,3.868,3.868,0.001,False,False,3.79,93.4,93.3,93.3,,,,,,,,,Idle,,,,,,6,Go Home,True,True,True,False,False,False,False,False,False,False,False,False,-33.7547774608723,150.738074033112,2.5,,328.0,True,1,1,False,False,False,False,,True,False,False,,196.8,,16.4,37,,,,,Calm,False,False,,1.12.0,DJI Air 3,1581F6N8C23AR003,6K5FL8K211X7G9,6UZBLAV02102UE,6NVPLASDA003CY,37.5,0.0,3.2,0.223694,5.368656,0,0,DJI Air 3,1581F6N8C23AR003,6K5FL8K211X7G9,6UZBLAV02102UE,6NVPLASDA003CY,DJI Fly,,1.12.0,04601484-5FA3-0032-463F-F2EEFC3903B3,1581F6N8C23AR0035EE6,,,,,,,,,
10/11/2024,3:32:35.81 AM,0m 1.6s,1.6,-33.754771559839,150.738078484789,0,0,0.3,107,0,0,0,0,0,0,0,0,0,4.6,-0.8,27.3,27.3,,Starting Motors,Other,,22,5,True,,Air 3,True,False,,Smart,RC,True,True,False,,,True,,False,False,False,False,False,False,False,False,False,False,0,Follow Yaw,0,0,12.5,12.5,False,False,False,False,False,False,,True,Normal,100,100,364,364,364,1684,C,False,False,False,False,False,0,False,False,False,False,72,15.473,2814,3935,15.473,False,3.869,3.868,3.868,3.868,0.001,False,False,3.79,93.4,93.3,93.3,,,,,,,,,Idle,,,,,,6,Go Home,True,True,True,False,False,False,False,False,False,False,False,False,-33.7547774608723,150.738074033112,2.5,,328.0,True,1,1,False,False,False,False,,True,False,False,,196.8,,16.4,37,,,,,Calm,False,False,,1.12.0,DJI Air 3,1581F6N8C23AR003,6K5FL8K211X7G9,6UZBLAV02102UE,6NVPLASDA003CY,37.5,0.0,3.2,0.223694,5.368656,0,0,DJI Air 3,1581F6N8C23AR003,6K5FL8K211X7G9,6UZBLAV02102UE,6NVPLASDA003CY,DJI Fly,,1.12.0,04601484-5FA3-0032-463F-F2EEFC3903B3,1581F6N8C23AR0035EE6,,,,,,,,,
10/11/2024,3:32:35.91 AM,0m 1.7s,1.7,-33.7547715497084,150.7380784892,0,0,0.3,107,0,0,0,0,0,0,0,0,0,4.6,-0.8,27.4,27.4,,Manual Takeoff,Other,,22,5,True,,Air 3,True,False,,Smart,RC,True,True,False,,,True,,False,False,False,False,False,False,False,False,False,False,0,Follow Yaw,0,0,12.5,12.5,False,False,False,False,False,False,,True,Normal,100,100,364,364,364,1684,C,False,False,False,False,False,0,False,False,False,False,72,15.473,2814,3935,15.473,False,3.869,3.868,3.868,3.868,0.001,False,False,3.79,93.4,93.3,93.3,,,,,,,,,Idle,,,,,,6,Go Home,True,True,True,False,False,False,False,False,False,False,False,False,-33.7547774608723,150.738074033112,2.5,,328.0,True,1,1,False,False,False,False,,True,False,False,,196.8,,16.4,37,,,,,Calm,False,False,,1.12.0,DJI Air 3,1581F6N8C23AR003,6K5FL8K211X7G9,6UZBLAV02102UE,6NVPLASDA003CY,37.5,0.0,3.2,0.223694,5.368656,0,0,DJI Air 3,1581F6N8C23AR003,6K5FL8K211X7G9,6UZBLAV02102UE,6NVPLASDA003CY,DJI Fly,,1.12.0,04601484-5FA3-0032-463F-F2EEFC3903B3,1581F6N8C23AR0035EE6,,,,,,,,Flight mode changed to Manual Takeoff.,
10/11/2024,3:32:36.01 AM,0m 1.8s,1.8,-33.7547715686942,150.738078513334,0,0,0.3,107,0,0,0,0,0,0,0,0,0,4.6,-0.8,27.5,27.5,,Manual Takeoff,Other,,22,5,True,,Air 3,True,False,,Smart,RC,True,True,False,,,True,,False,False,False,False,False,False,False,False,False,False,0,Follow Yaw,0,0,12.6,12.6,False,False,False,False,False,False,,True,Normal,100,100,364,364,364,1684,C,False,False,False,False,False,0,False,False,False,False,72,15.504,2812,3935,15.504,False,3.875,3.877,3.877,3.876,0.002,False,False,3.064,93.4,93.3,93.3,,,,,,,,,Idle,,,,,,6,Go Home,True,True,True,False,False,False,False,False,False,False,False,False,-33.7547774608723,150.738074033112,2.5,,328.0,True,1,1,False,False,False,False,,True,False,False,,196.8,,16.4,37,,,,,Calm,False,False,,1.12.0,DJI Air 3,1581F6N8C23AR003,6K5FL8K211X7G9,6UZBLAV02102UE,6NVPLASDA003CY,37.5,0.0,3.2,0.223694,5.368656,0,0,DJI Air 3,1581F6N8C23AR003,6K5FL8K211X7G9,6UZBLAV02102UE,6NVPLASDA003CY,DJI Fly,,1.12.0,04601484-5FA3-0032-463F-F2EEFC3903B3,1581F6N8C23AR0035EE6,,,,,,,,,
10/11/2024,3:32:36.11 AM,0m 1.9s,1.9,-33.7547715615171,150.738078516083,0,0,0.3,107,0,0,0,0,0,0,0,0,0,4.6,-0.8,27.7,27.7,,Manual Takeoff,Other,,22,5,True,,Air 3,True,False,,Smart,RC,True,True,False,,,True,,False,False,False,False,False,False,False,False,False,False,0,Follow Yaw,0,0,12.7,12.7,False,False,False,False,False,False,,True,Normal,100,100,364,364,364,1684,C,False,False,False,False,False,0,False,False,False,False,72,15.504,2812,3935,15.504,False,3.875,3.877,3.877,3.876,0.002,False,False,3.064,93.4,93.3,93.3,,,,,,,,,Idle,,,,,,6,Go Home,True,True,True,False,False,False,False,False,False,False,False,False,-33.7547774608723,150.738074033112,2.5,,328.0,True,1,1,False,False,False,False,,True,False,False,,196.8,,16.4,37,,,,,Calm,False,False,,1.12.0,DJI Air 3,1581F6N8C23AR003,6K5FL8K211X7G9,6UZBLAV02102UE,6NVPLASDA003CY,37.5,0.0,3.2,0.223694,5.368656,0,0,DJI Air 3,1581F6N8C23AR003,6K5FL8K211X7G9,6UZBLAV02102UE,6NVPLASDA003CY,DJI Fly,,1.12.0,04601484-5FA3-0032-463F-F2EEFC3903B3,1581F6N8C23AR0035EE6,,,,,,,,,
10/11/2024,3:32:36.21 AM,0m 2.0s,2.0,-33.7547715571286,150.738078480215,0,0,0.3,107,0.1,0,0,0,0,0,0,0,0,4.6,-0.8,27.9,27.9,,Manual Takeoff,Other,,22,5,True,,Air 3,True,False,,Smart,RC,True,True,False,,,True,,False,False,False,False,False,False,False,False,False,False,0,Follow Yaw,0,0,12.9,12.9,False,False,False,False,False,False,,True,Normal,100,100,1024,1024,1024,1024,C,False,False,False,False,False,0,False,False,False,False,72,15.504,2812,3935,15.504,False,3.875,3.877,3.877,3.876,0.002,False,False,3.064,93.4,93.3,93.3,,,,,,,,,Idle,,,,,,6,Go Home,True,True,True,False,False,False,False,False,False,False,False,False,-33.7547774608723,150.738074033112,2.5,,328.0,True,1,1,False,False,False,False,,True,False,False,,196.8,,16.4,37,,,,,Calm,False,False,,1.12.0,DJI Air 3,1581F6N8C23AR003,6K5FL8K211X7G9,6UZBLAV02102UE,6NVPLASDA003CY,37.5,0.0,3.2,0.223694,5.368656,0,0,DJI Air 3,1581F6N8C23AR003,6K5FL8K211X7G9,6UZBLAV02102UE,6NVPLASDA003CY,DJI Fly,,1.12.0,04601484-5FA3-0032-463F-F2EEFC3903B3,1581F6N8C23AR0035EE6,,,,,,,,,
10/11/2024,3:32:36.31 AM,0m 2.1s,2.1,-33.7547715566531,150.738078477433,0,0,0.3,107,0.1,0,0,0,0,0,0,0,0,4.6,-0.8,27.9,27.9,,Manual Takeoff,Other,,22,5,True,,Air 3,True,False,,Smart,RC,True,True,False,,,True,,False,False,False,False,False,False,False,False,False,False,0,Follow Yaw,0,0,13,13,False,False,False,False,False,False,,True,Normal,100,100,1024,1024,1024,1024,C,False,False,False,False,False,0,False,False,False,False,72,15.504,2812,3935,15.504,False,3.875,3.877,3.877,3.876,0.002,False,False,3.064,93.4,93.3,93.3,,,,,,,,,Idle,,,,,,6,Go Home,True,True,True,False,False,False,False,False,False,False,False,False,-33.7547774608723,150.738074033112,2.5,,328.0,True,1,1,False,False,False,False,,True,False,False,,196.8,,16.4,37,,,,,Calm,False,False,,1.12.0,DJI Air 3,1581F6N8C23AR003,6K5FL8K211X7G9,6UZBLAV02102UE,6NVPLASDA003CY,37.5,0.0,3.2,0.223694,5.368656,0,0,DJI Air 3,1581F6N8C23AR003,6K5FL8K211X7G9,6UZBLAV02102UE,6NVPLASDA003CY,DJI Fly,,1.12.0,04601484-5FA3-0032-463F-F2EEFC3903B3,1581F6N8C23AR0035EE6,,,,,,,,,
10/11/2024,3:32:36.41 AM,0m 2.2s,2.2,-33.7547715897317,150.738078491654,0,0,0.3,107,0.1,0,0,0,0,0,0,0,0,4.6,-0.8,28,28,,Manual Takeoff,Other,,22,5,True,,Air 3,True,False,,Smart,RC,True,True,False,,,True,,False,False,False,False,False,False,False,False,False,False,0,Follow Yaw,0,0,13.1,13.1,False,False,False,False,False,False,,True,Normal,100,100,1024,1024,1024,1024,C,False,False,False,False,False,0,False,False,False,False,72,15.504,2812,3935,15.504,False,3.875,3.877,3.877,3.876,0.002,False,False,3.064,93.4,93.3,93.3,,,,,,,,,Idle,,,,,,6,Go Home,True,True,True,False,False,False,False,False,False,False,False,False,-33.7547774608723,150.738074033112,2.5,,328.0,True,1,1,False,False,False,False,,True,False,False,,196.8,,16.4,37,,,,,Calm,False,False,,1.12.0,DJI Air 3,1581F6N8C23AR003,6K5FL8K211X7G9,6UZBLAV02102UE,6NVPLASDA003CY,37.5,0.0,3.2,0.223694,5.368656,0,0,DJI Air 3,1581F6N8C23AR003,6K5FL8K211X7G9,6UZBLAV02102UE,6NVPLASDA003CY,DJI Fly,,1.12.0,04601484-5FA3-0032-463F-F2EEFC3903B3,1581F6N8C23AR0035EE6,,,,,,,,,
10/11/2024,3:32:36.51 AM,0m 2.3s,2.3,-33.7547715956687,150.738078490106,0,0,0.3,107,0.1,0,0,0,0,0,0,0,0,4.6,-0.8,28,28,,Manual Takeoff,Other,,22,5,True,,Air 3,True,False,,Smart,RC,True,True,False,,,True,,False,False,False,False,False,False,False,False,False,False,0,Follow Yaw,0,0,13.1,13.1,False,False,False,False,False,False,,True,Normal,100,100,1024,1024,1024,1024,C,False,False,False,False,False,0,False,False,False,False,72,15.504,2812,3935,15.504,False,3.875,3.877,3.877,3.876,0.002,False,False,3.064,93.4,93.3,93.3,,,,,,,,,Idle,,,,,,6,Go Home,True,True,True,False,False,False,False,False,False,False,False,False,-33.7547774608723,150.738074033112,2.5,,328.0,True,1,1,False,False,False,False,,True,False,False,,196.8,,16.4,37,,,,,Calm,False,False,,1.12.0,DJI Air 3,1581F6N8C23AR003,6K5FL8K211X7G9,6UZBLAV02102UE,6NVPLASDA003CY,37.5,0.0,3.2,0.223694,5.368656,0,0,DJI Air 3,1581F6N8C23AR003,6K5FL8K211X7G9,6UZBLAV02102UE,6NVPLASDA003CY,DJI Fly,,1.12.0,04601484-5FA3-0032-463F-F2EEFC3903B3,1581F6N8C23AR0035EE6,,,,,,,,,
10/11/2024,3:32:36.61 AM,0m 2.4s,2.4,-33.7547715730259,150.738078492262,0,0,0.3,107,0.1,0,0,0,0,0,0,0,0,4.6,-0.8,27.9,27.9,,Manual Takeoff,Other,,22,5,True,,Air 3,True,False,,Smart,RC,True,True,False,,,True,,False,False,False,False,False,False,False,False,False,False,0,Follow Yaw,0,0,13.1,13.1,False,False,False,False,False,False,,True,Normal,100,100,1024,1024,1024,1024,C,False,False,False,False,False,0,False,False,False,False,72,15.524,2812,3935,15.524,False,3.881,3.881,3.881,3.882,0.002,False,False,3.064,93.4,93.3,93.3,,,,,,,,,Idle,,,,,,6,Go Home,True,True,True,False,False,False,False,False,False,False,False,False,-33.7547774608723,150.738074033112,2.5,,328.0,True,1,1,False,False,False,False,,True,False,False,,196.8,,16.4,37,,,,,Calm,False,False,,1.12.0,DJI Air 3,1581F6N8C23AR003,6K5FL8K211X7G9,6UZBLAV02102UE,6NVPLASDA003CY,37.5,0.0,3.2,0.223694,5.368656,0,0,DJI Air 3,1581F6N8C23AR003,6K5FL8K211X7G9,6UZBLAV02102UE,6NVPLASDA003CY,DJI Fly,,1.12.0,04601484-5FA3-0032-463F-F2EEFC3903B3,1581F6N8C23AR0035EE6,,,,,,,,,
10/11/2024,3:32:36.67 AM,0m 2.5s,2.5,-33.7547715743538,150.738078498243,0,0,0.3,107,0.1,0,0,0,0,0,0,0,0,4.6,-0.8,27.7,27.7,,Manual Takeoff,Other,,22,5,True,,Air 3,True,False,,Smart,RC,True,True,False,,,True,,False,False,False,False,False,False,False,False,False,False,0,Follow Yaw,0,0,13.1,13.1,False,False,False,False,False,False,,True,Normal,100,100,1024,1024,1024,1024,C,False,False,False,False,False,0,False,False,False,False,72,15.524,2812,3935,15.524,False,3.881,3.881,3.881,3.882,0.002,False,False,3.064,93.4,93.3,93.3,,,,,,,,,Idle,,,,,,6,Go Home,True,True,True,False,False,False,False,False,False,False,False,False,-33.7547774608723,150.738074033112,2.5,,328.0,True,1,1,False,False,False,False,,True,False,False,,196.8,,16.4,37,,,,,Calm,False,False,,1.12.0,DJI Air 3,1581F6N8C23AR003,6K5FL8K211X7G9,6UZBLAV02102UE,6NVPLASDA003CY,37.5,0.0,3.2,0.223694,5.368656,0,0,DJI Air 3,1581F6N8C23AR003,6K5FL8K211X7G9,6UZBLAV02102UE,6NVPLASDA003CY,DJI Fly,,1.12.0,04601484-5FA3-0032-463F-F2EEFC3903B3,1581F6N8C23AR0035EE6,,,,,,,,,
10/11/2024,3:32:36.81 AM,0m 2.6s,2.6,-33.7547715686203,150.738078487189,0,0,0.3,107,0.1,0,0,0,0,0,0,0,0,4.6,-0.8,27.8,27.8,,Manual Takeoff,Other,,22,5,True,,Air 3,True,False,,Smart,RC,True,True,False,,,True,,False,False,False,False,False,False,False,False,False,False,0,Follow Yaw,0,0,13,13,False,False,False,False,False,False,,True,Normal,100,100,1024,1024,1024,1024,C,False,False,False,False,False,0,False,False,False,False,72,15.524,2812,3935,15.524,False,3.881,3.881,3.881,3.882,0.002,False,False,3.064,93.4,93.3,93.3,,,,,,,,,Idle,,,,,,6,Go Home,True,True,True,False,False,False,False,False,False,False,False,False,-33.7547774608723,150.738074033112,2.5,,328.0,True,1,1,False,False,False,False,,True,False,False,,196.8,,16.4,37,,,,,Calm,False,False,,1.12.0,DJI Air 3,1581F6N8C23AR003,6K5FL8K211X7G9,6UZBLAV02102UE,6NVPLASDA003CY,37.5,0.0,3.2,0.223694,5.368656,0,0,DJI Air 3,1581F6N8C23AR003,6K5FL8K211X7G9,6UZBLAV02102UE,6NVPLASDA003CY,DJI Fly,,1.12.0,04601484-5FA3-0032-463F-F2EEFC3903B3,1581F6N8C23AR0035EE6,,,,,,,,,
10/11/2024,3:32:36.88 AM,0m 2.7s,2.7,-33.7547715645638,150.738078488766,0,0,0.3,107,0.1,0,0,0,0,0,0,0,0,4.6,-0.8,27.7,27.7,,Manual Takeoff,Other,,22,5,True,,Air 3,True,False,,Smart,RC,True,True,False,,,True,,False,False,False,False,False,False,False,False,False,False,0,Follow Yaw,0,0,13,13,False,False,False,False,False,False,,True,Normal,100,100,1024,1024,1024,1024,C,False,False,False,False,False,0,False,False,False,False,72,15.524,2812,3935,15.524,False,3.881,3.881,3.881,3.882,0.002,False,False,3.064,93.4,93.3,93.3,,,,,,,,,Idle,,,,,,6,Go Home,True,True,True,False,False,False,False,False,False,False,False,False,-33.7547774608723,150.738074033112,2.5,,328.0,True,1,1,False,False,False,False,,True,False,False,,196.8,,16.4,37,,,,,Calm,False,False,,1.12.0,DJI Air 3,1581F6N8C23AR003,6K5FL8K211X7G9,6UZBLAV02102UE,6NVPLASDA003CY,37.5,0.0,3.2,0.223694,5.368656,0,0,DJI Air 3,1581F6N8C23AR003,6K5FL8K211X7G9,6UZBLAV02102UE,6NVPLASDA003CY,DJI Fly,,1.12.0,04601484-5FA3-0032-463F-F2EEFC3903B3,1581F6N8C23AR0035EE6,,,,,,,,,
10/11/2024,3:32:36.98 AM,0m 2.8s,2.8,-33.7547715657471,150.738078501105,0,0,0.3,107,0.1,0,0,0,0,0,0,0,0,4.6,-0.8,27.7,27.7,,Manual Takeoff,Other,,22,5,True,,Air 3,True,False,,Smart,RC,True,True,False,,,True,,False,False,False,False,False,False,False,False,False,False,0,Follow Yaw,0,0,13,13,False,False,False,False,False,False,,True,Normal,100,100,1024,1024,1024,1024,C,False,False,False,False,False,0,False,False,False,False,72,15.524,2812,3935,15.524,False,3.881,3.881,3.881,3.882,0.002,False,False,1.904,93.4,93.3,93.3,,,,,,,,,Idle,,,,,,6,Go Home,True,True,True,False,False,False,False,False,False,False,False,False,-33.7547774608723,150.738074033112,2.5,,328.0,True,1,1,False,False,False,False,,True,False,False,,196.8,,16.4,37,,,,,Calm,False,False,,1.12.0,DJI Air 3,1581F6N8C23AR003,6K5FL8K211X7G9,6UZBLAV02102UE,6NVPLASDA003CY,37.5,0.0,3.2,0.223694,5.368656,0,0,DJI Air 3,1581F6N8C23AR003,6K5FL8K211X7G9,6UZBLAV02102UE,6NVPLASDA003CY,DJI Fly,,1.12.0,04601484-5FA3-0032-463F-F2EEFC3903B3,1581F6N8C23AR0035EE6,,,,,,,,,
10/11/2024,3:32:37.08 AM,0m 2.9s,2.9,-33.754771562105,150.738078500272,0,0,0.3,107,0.1,0,0,0,0,0,0,0,0,4.6,-0.8,27.8,27.8,,Manual Takeoff,Other,,22,5,True,,Air 3,True,False,,Smart,RC,True,True,False,,,True,,False,False,False,False,False,False,False,False,False,False,0,Follow Yaw,0,0,13,13,False,False,False,False,False,False,,True,Normal,100,100,1024,1024,1102,1024,C,False,False,False,False,False,0,False,False,False,False,72,15.524,2812,3935,15.524,False,3.881,3.881,3.881,3.882,0.002,False,False,1.904,93.4,93.3,93.3,,,,,,,,,Idle,,,,,,6,Go Home,True,True,True,False,False,False,False,False,False,False,False,False,-33.7547774608723,150.738074033112,2.5,,328.0,True,1,1,False,False,False,False,,True,False,False,,196.8,,16.4,37,,,,,Calm,False,False,,1.12.0,DJI Air 3,1581F6N8C23AR003,6K5FL8K211X7G9,6UZBLAV02102UE,6NVPLASDA003CY,37.5,0.0,3.2,0.223694,5.368656,0,0,DJI Air 3,1581F6N8C23AR003,6K5FL8K211X7G9,6UZBLAV02102UE,6NVPLASDA003CY,DJI Fly,,1.12.0,04601484-5FA3-0032-463F-F2EEFC3903B3,1581F6N8C23AR0035EE6,,,,,,,,,
10/11/2024,3:32:37.18 AM,0m 3.0s,3.0,-33.754771565836,150.738078506107,0,0,0.3,107,0.1,0,0,0,0,0,0,0,0,4.6,-0.8,27.8,27.8,,Manual Takeoff,Other,,22,5,True,,Air 3,True,False,,Smart,RC,True,True,False,,,True,,False,False,False,False,False,False,False,False,False,False,0,Follow Yaw,0,0,13,13,False,False,False,False,False,False,,True,Normal,100,100,1024,1024,1510,1024,C,False,False,False,False,False,0,False,False,False,False,72,15.524,2812,3935,15.524,False,3.881,3.881,3.881,3.882,0.002,False,False,1.904,93.4,93.3,93.3,,,,,,,,,Idle,,,,,,6,Go Home,True,True,True,False,False,False,False,False,False,False,False,False,-33.7547774608723,150.738074033112,2.5,,328.0,True,1,1,False,False,False,False,,True,False,False,,196.8,,16.4,37,,,,,Calm,False,False,,1.12.0,DJI Air 3,1581F6N8C23AR003,6K5FL8K211X7G9,6UZBLAV02102UE,6NVPLASDA003CY,37.5,0.0,3.2,0.223694,5.368656,0,0,DJI Air 3,1581F6N8C23AR003,6K5FL8K211X7G9,6UZBLAV02102UE,6NVPLASDA003CY,DJI Fly,,1.12.0,04601484-5FA3-0032-463F-F2EEFC3903B3,1581F6N8C23AR0035EE6,,,,,,,,,
10/11/2024,3:32:37.28 AM,0m 3.1s,3.1,-33.7547715654868,150.738078507829,0,0,0.3,107,0.1,0,0,0,0,0,0,0,0,4.6,-0.8,27.8,27.8,,Manual Takeoff,Other,,22,5,True,,Air 3,True,False,,Smart,RC,True,True,False,,,True,,False,False,False,False,False,False,False,False,False,False,0,Follow Yaw,0,0,13,13,False,False,False,False,False,False,,True,Normal,100,100,1024,1024,1684,1024,C,False,False,False,False,False,0,False,False,False,False,72,15.524,2812,3935,15.524,False,3.881,3.881,3.881,3.882,0.002,False,False,1.904,93.4,93.3,93.3,,,,,,,,,Idle,,,,,,6,Go Home,True,True,True,False,False,False,False,False,False,False,False,False,-33.7547774608723,150.738074033112,2.5,,328.0,True,1,1,False,False,False,False,,True,False,False,,196.8,,16.4,37,,,,,Calm,False,False,,1.12.0,DJI Air 3,1581F6N8C23AR003,6K5FL8K211X7G9,6UZBLAV02102UE,6NVPLASDA003CY,37.5,0.0,3.2,0.223694,5.368656,0,0,DJI Air 3,1581F6N8C23AR003,6K5FL8K211X7G9,6UZBLAV02102UE,6NVPLASDA003CY,DJI Fly,,1.12.0,04601484-5FA3-0032-463F-F2EEFC3903B3,1581F6N8C23AR0035EE6,,,,,,,,,
10/11/2024,3:32:37.38 AM,0m 3.2s,3.2,-33.7547715730719,150.738078497344,0,0,0.3,107,0.1,0,0,0,0,0,0,0,0,4.6,-0.8,27.8,27.8,,Manual Takeoff,Other,,22,5,True,,Air 3,True,False,,Smart,RC,True,True,False,,,True,,False,False,False,False,False,False,False,False,False,False,0,Follow Yaw,0,0,13,13,False,False,False,False,False,False,,True,Normal,100,100,1024,1024,1684,1024,C,False,False,False,False,False,0,False,False,False,False,72,15.524,2812,3935,15.524,False,3.881,3.881,3.881,3.882,0.002,False,False,1.904,93.4,93.3,93.3,,,,,,,,,Idle,,,,,,6,Go Home,True,True,True,False,False,False,False,False,False,False,False,False,-33.7547774608723,150.738074033112,2.5,,328.0,True,1,1,False,False,False,False,,True,False,False,,196.8,,16.4,37,,,,,Calm,False,False,,1.12.0,DJI Air 3,1581F6N8C23AR003,6K5FL8K211X7G9,6UZBLAV02102UE,6NVPLASDA003CY,37.5,0.0,3.2,0.223694,5.368656,0,0,DJI Air 3,1581F6N8C23AR003,6K5FL8K211X7G9,6UZBLAV02102UE,6NVPLASDA003CY,DJI Fly,,1.12.0,04601484-5FA3-0032-463F-F2EEFC3903B3,1581F6N8C23AR0035EE6,,,,,,,,,
10/11/2024,3:32:37.48 AM,0m 3.3s,3.3,-33.7547715738066,150.738078498574,0,0,0.3,107,0.1,0,0,0,0,0,0,0,0,4.5,-0.8,27.8,27.8,,Manual Takeoff,Other,,22,5,True,,Air 3,True,False,,Smart,RC,True,True,False,,,True,,False,False,False,False,False,False,False,False,False,False,0,Follow Yaw,0,0,13,13,False,False,False,False,False,False,,True,Normal,100,100,1024,1024,1684,1024,C,False,False,False,False,False,0,False,False,False,False,72,15.524,2812,3935,15.524,False,3.881,3.881,3.881,3.882,0.002,False,False,1.904,93.4,93.3,93.3,,,,,,,,,Idle,,,,,,6,Go Home,True,True,True,False,False,False,False,False,False,False,False,False,-33.7547774608723,150.738074033112,2.5,,328.0,True,1,1,False,False,False,False,,True,False,False,,196.8,,16.4,37,,,,,Calm,False,False,,1.12.0,DJI Air 3,1581F6N8C23AR003,6K5FL8K211X7G9,6UZBLAV02102UE,6NVPLASDA003CY,37.5,0.0,3.2,0.223694,5.368656,0,0,DJI Air 3,1581F6N8C23AR003,6K5FL8K211X7G9,6UZBLAV02102UE,6NVPLASDA003CY,DJI Fly,,1.12.0,04601484-5FA3-0032-463F-F2EEFC3903B3,1581F6N8C23AR0035EE6,,,,,,,,,
10/11/2024,3:32:37.59 AM,0m 3.4s,3.4,-33.7547715561327,150.738078477044,0,0,0.3,107,0.1,0,0,0,0,0,0,0,0,4.4,-0.9,27.7,27.7,,Manual Takeoff,Other,,22,5,True,,Air 3,True,False,,Smart,RC,True,True,False,,,True,,False,False,False,False,False,False,False,False,False,False,0,Follow Yaw,0,0,13,13,False,False,False,False,False,False,,True,Normal,100,100,1024,1024,1684,1014,C,False,False,False,False,False,0,False,False,False,False,72,15.527,2812,3935,15.527,False,3.881,3.883,3.882,3.882,0.002,False,False,1.904,93.4,93.3,93.3,,,,,,,,,Idle,,,,,,6,Go Home,True,True,True,False,False,False,False,False,False,False,False,False,-33.7547774608723,150.738074033112,2.5,,328.0,True,1,1,False,False,False,False,,True,False,False,,196.8,,16.4,37,,,,,Calm,False,False,,1.12.0,DJI Air 3,1581F6N8C23AR003,6K5FL8K211X7G9,6UZBLAV02102UE,6NVPLASDA003CY,37.5,0.0,3.2,0.223694,5.368656,0,0,DJI Air 3,1581F6N8C23AR003,6K5FL8K211X7G9,6UZBLAV02102UE,6NVPLASDA003CY,DJI Fly,,1.12.0,04601484-5FA3-0032-463F-F2EEFC3903B3,1581F6N8C23AR0035EE6,,,,,,,,,
10/11/2024,3:32:37.69 AM,0m 3.5s,3.5,-33.7547715563211,150.738078471919,0,0,0.3,107,0.1,0,0,0,0,0,0,0,0,3.2,-0.9,27.6,27.6,,Manual Takeoff,Other,,22,5,True,,Air 3,True,False,,Smart,RC,True,True,False,,,True,,False,False,False,False,False,False,False,False,False,False,0,Follow Yaw,0,0,13,13,False,False,False,False,False,False,,True,Normal,100,100,1024,1024,1684,1011,C,False,False,False,False,False,0,False,False,False,False,72,15.527,2812,3935,15.527,False,3.881,3.883,3.882,3.882,0.002,False,False,1.904,93.4,93.3,93.3,,,,,,,,,Idle,,,,,,6,Go Home,True,True,True,False,False,False,False,False,False,False,False,False,-33.7547774608723,150.738074033112,2.5,,328.0,True,1,1,False,False,False,False,,True,False,False,,196.8,,16.4,37,,,,,Calm,False,False,,1.12.0,DJI Air 3,1581F6N8C23AR003,6K5FL8K211X7G9,6UZBLAV02102UE,6NVPLASDA003CY,37.5,0.0,3.2,0.223694,5.368656,0,0,DJI Air 3,1581F6N8C23AR003,6K5FL8K211X7G9,6UZBLAV02102UE,6NVPLASDA003CY,DJI Fly,,1.12.0,04601484-5FA3-0032-463F-F2EEFC3903B3,1581F6N8C23AR0035EE6,,,,,,,,,
10/11/2024,3:32:37.79 AM,0m 3.6s,3.6,-33.75477156845,150.738078442681,0,0,0.3,107,0.1,0,0,0,0,0,0,-0.223694,0,-0.1,-0.6,27.5,27.5,,Manual Takeoff,Other,,22,5,True,,Air 3,True,False,,Smart,RC,True,True,False,,,True,,False,False,False,False,False,False,False,False,False,False,0,Follow Yaw,0,0,13,13,False,False,False,False,False,False,,True,Normal,100,100,1024,1024,1684,1011,C,False,False,False,False,False,0,False,False,False,False,72,15.527,2812,3935,15.527,False,3.881,3.883,3.882,3.882,0.002,False,False,1.904,93.4,93.3,93.3,,,,,,,,,Idle,,,,,,6,Go Home,True,True,True,False,False,False,False,False,False,False,False,False,-33.7547774608723,150.738074033112,2.5,,328.0,True,1,1,False,False,False,False,,True,False,False,,196.8,,16.4,37,,,,,Calm,False,False,,1.12.0,DJI Air 3,1581F6N8C23AR003,6K5FL8K211X7G9,6UZBLAV02102UE,6NVPLASDA003CY,37.5,0.0,3.2,0.223694,5.368656,0,0,DJI Air 3,1581F6N8C23AR003,6K5FL8K211X7G9,6UZBLAV02102UE,6NVPLASDA003CY,DJI Fly,,1.12.0,04601484-5FA3-0032-463F-F2EEFC3903B3,1581F6N8C23AR0035EE6,,,,,,,,,
10/11/2024,3:32:37.89 AM,0m 3.7s,3.7,-33.7547715872119,150.738078396455,0,0,0.3,107,0.1,0,0,0,0,0,0,-0.671082,0,-1.2,-0.3,27.2,27.2,,Manual Takeoff,Other,,22,5,True,,Air 3,True,False,,Smart,RC,False,True,False,,,True,,False,False,False,False,False,False,False,False,False,False,0,Follow Yaw,0,0,13.2,13.2,False,False,False,False,False,False,,True,Normal,100,100,1024,1024,1684,1010,C,False,False,False,False,False,0,False,False,False,False,72,15.527,2812,3935,15.527,False,3.881,3.883,3.882,3.882,0.002,False,False,1.904,93.4,93.3,93.3,,,,,,,,,Idle,,,,,,6,Go Home,True,True,True,False,False,False,False,False,True,False,False,False,-33.7547715751088,150.738078429207,0.0,,328.0,True,1,1,False,False,False,False,,True,False,False,,196.8,,16.4,37,S,SE,0.89,0.89,Calm,False,True,,1.12.0,DJI Air 3,1581F6N8C23AR003,6K5FL8K211X7G9,6UZBLAV02102UE,6NVPLASDA003CY,37.5,0.0,3.2,0.223694,5.368656,0,0,DJI Air 3,1581F6N8C23AR003,6K5FL8K211X7G9,6UZBLAV02102UE,6NVPLASDA003CY,DJI Fly,,1.12.0,04601484-5FA3-0032-463F-F2EEFC3903B3,1581F6N8C23AR0035EE6,,,,,,,,Home Point Updated.,
10/11/2024,3:32:37.99 AM,0m 3.8s,3.8,-33.7547715738012,150.738078307045,0,0,0.3,107,0.2,0,0,0,0,0,0,-1.342164,0,-0.1,0,27.7,27.7,,P-GPS (Brake),Other,,22,5,True,,Air 3,True,False,,Smart,RC,False,True,False,,,True,,False,False,False,False,False,False,False,False,False,False,0,Follow Yaw,0,0,13.3,13.3,False,False,False,False,False,False,,True,Normal,100,100,1024,1024,1684,1010,C,False,False,False,False,False,0,False,False,False,False,72,15.492,2812,3935,15.492,False,3.875,3.874,3.872,3.871,0.004,False,False,1.838,93.4,93.3,93.3,,,,,,,,,Idle,,,,,,6,Go Home,True,True,True,False,False,False,False,False,True,False,False,False,-33.7547715751088,150.738078429207,0.0,,328.0,True,1,1,False,False,False,False,,True,False,False,,196.8,,16.4,37,W,SW,0.89,0.89,Calm,False,True,,1.12.0,DJI Air 3,1581F6N8C23AR003,6K5FL8K211X7G9,6UZBLAV02102UE,6NVPLASDA003CY,37.5,0.0,3.2,0.223694,5.368656,0,0,DJI Air 3,1581F6N8C23AR003,6K5FL8K211X7G9,6UZBLAV02102UE,6NVPLASDA003CY,DJI Fly,,1.12.0,04601484-5FA3-0032-463F-F2EEFC3903B3,1581F6N8C23AR0035EE6,,,,,,,,Flight mode changed to P-GPS (Brake).,
10/11/2024,3:32:38.09 AM,0m 3.9s,3.9,-33.754771574962,150.738078279492,0.3,0.3,0.6,107,0.2,0,0,0,0,0,0,-1.789552,0,0.8,-0.5,27.8,27.8,,P-GPS (Brake),Other,,22,5,True,,Air 3,True,False,,Smart,RC,False,True,False,,,True,,False,False,False,False,False,False,False,False,False,False,0,Follow Yaw,0,0,13.4,13.4,False,False,False,False,False,False,,True,Normal,100,100,1024,1024,1684,1010,C,False,False,False,False,False,0,False,False,False,False,72,15.492,2812,3935,15.492,False,3.875,3.874,3.872,3.871,0.004,False,False,1.838,93.4,93.3,93.3,,,,,,,,,Idle,,,,,,6,Go Home,True,True,True,False,False,False,False,False,True,False,False,False,-33.7547715751088,150.738078429207,0.0,,328.0,True,1,1,False,False,False,False,,True,False,False,,196.8,,16.4,37,S,SE,0.89,0.89,Calm,False,False,,1.12.0,DJI Air 3,1581F6N8C23AR003,6K5FL8K211X7G9,6UZBLAV02102UE,6NVPLASDA003CY,37.5,0.0,3.2,0.223694,5.368656,0,0,DJI Air 3,1581F6N8C23AR003,6K5FL8K211X7G9,6UZBLAV02102UE,6NVPLASDA003CY,DJI Fly,,1.12.0,04601484-5FA3-0032-463F-F2EEFC3903B3,1581F6N8C23AR0035EE6,,,,,,,,,
10/11/2024,3:32:38.20 AM,0m 4.0s,4.0,-33.7547715398584,150.738078205201,0.6,0.6,0.9,107,0.2,0,0,0,0,0,0,-2.460634,0,0.9,-1.1,27.7,27.7,,P-GPS (Brake),Other,,22,5,True,,Air 3,True,False,,Smart,RC,False,True,False,,,True,,False,False,False,False,False,False,False,False,False,False,0,Follow Yaw,0,0,13.4,13.4,False,False,False,False,False,False,,True,Normal,100,100,1024,1024,1684,1011,C,False,False,False,False,False,0,False,False,False,False,72,15.492,2812,3935,15.492,False,3.875,3.874,3.872,3.871,0.004,False,False,1.838,93.4,93.3,93.3,,,,,,,,,Idle,,,,,,6,Go Home,True,True,True,False,False,False,False,False,True,False,False,False,-33.7547715751088,150.738078429207,0.0,,328.0,True,1,1,False,False,False,False,,True,False,False,,196.8,,16.4,37,SE,E,0.89,0.89,Calm,False,False,,1.12.0,DJI Air 3,1581F6N8C23AR003,6K5FL8K211X7G9,6UZBLAV02102UE,6NVPLASDA003CY,37.5,0.0,3.2,0.223694,5.368656,0,0,DJI Air 3,1581F6N8C23AR003,6K5FL8K211X7G9,6UZBLAV02102UE,6NVPLASDA003CY,DJI Fly,,1.12.0,04601484-5FA3-0032-463F-F2EEFC3903B3,1581F6N8C23AR0035EE6,,,,,,,,,
10/11/2024,3:32:38.30 AM,0m 4.1s,4.1,-33.7547715471105,150.738078104669,1.3,1.3,1.3,108,0.2,0.223694,0.223694,0,0,-0.223694,0,-3.35541,0,0.1,-0.4,27.8,27.8,265.0,P-GPS (Brake),Other,,22,5,True,,Air 3,True,False,,Smart,RC,False,True,False,,,True,,False,False,False,False,False,False,False,False,False,False,0,Follow Yaw,0,0,13.4,13.4,False,False,False,False,False,False,,True,Normal,100,100,1024,1024,1684,1023,C,False,False,False,False,False,0,False,False,False,False,72,15.492,2812,3935,15.492,False,3.875,3.874,3.872,3.871,0.004,False,False,1.838,93.4,93.3,93.3,,,,,,,,,Idle,,,,,,6,Go Home,True,True,True,False,False,False,False,False,True,False,False,False,-33.7547715751088,150.738078429207,0.0,,328.0,True,1,1,False,False,False,False,,True,False,False,,196.8,,16.4,37,E,NE,0.89,0.89,Calm,True,False,,1.12.0,DJI Air 3,1581F6N8C23AR003,6K5FL8K211X7G9,6UZBLAV02102UE,6NVPLASDA003CY,37.5,0.0,3.2,0.223694,5.368656,0,0,DJI Air 3,1581F6N8C23AR003,6K5FL8K211X7G9,6UZBLAV02102UE,6NVPLASDA003CY,DJI Fly,,1.12.0,04601484-5FA3-0032-463F-F2EEFC3903B3,1581F6N8C23AR0035EE6,,,,,,,,,
10/11/2024,3:32:38.40 AM,0m 4.2s,4.2,-33.7547715455641,150.738077967927,1.6,1.6,1.9,108,0.3,0.223694,0.223694,0,0,-0.223694,0,-4.250186,0,-0.4,0.7,28,28,270.7,P-GPS (Brake),Other,,22,5,True,,Air 3,True,False,,Smart,RC,False,True,False,,,True,,False,False,False,False,False,False,False,False,False,False,0,Follow Yaw,0,0,13.4,13.4,False,False,False,False,False,False,,True,Normal,100,100,1024,1024,1024,1024,C,False,False,False,False,False,0,False,False,False,False,72,15.492,2812,3935,15.492,False,3.875,3.874,3.872,3.871,0.004,False,False,1.838,93.4,93.3,93.3,,,,,,,,,Idle,,,,,,6,Go Home,True,True,True,False,False,False,False,False,True,False,False,False,-33.7547715751088,150.738078429207,0.1,,328.0,True,1,1,False,False,False,False,,True,False,False,,196.8,,16.4,37,E,NE,1.11,1.11,Calm,True,False,,1.12.0,DJI Air 3,1581F6N8C23AR003,6K5FL8K211X7G9,6UZBLAV02102UE,6NVPLASDA003CY,37.5,0.0,3.2,0.223694,5.368656,0,0,DJI Air 3,1581F6N8C23AR003,6K5FL8K211X7G9,6UZBLAV02102UE,6NVPLASDA003CY,DJI Fly,,1.12.0,04601484-5FA3-0032-463F-F2EEFC3903B3,1581F6N8C23AR0035EE6,,,,,,,,,
10/11/2024,3:32:38.50 AM,0m 4.3s,4.3,-33.7547715169393,150.738077843562,2.6,2.6,2.6,109,0.3,0.223694,0.223694,0,0,-0.223694,0,-5.144962,0,-0.6,1.6,28.1,28.1,285.4,P-GPS (Brake),Other,,22,5,True,,Air 3,True,False,,Smart,RC,False,True,False,,,True,,False,False,False,False,False,False,False,False,False,False,0,Follow Yaw,0,0,13.4,13.4,False,False,False,False,False,False,,True,Normal,100,100,1024,1024,1024,1024,C,False,False,False,False,False,0,False,False,False,False,72,15.492,2812,3935,15.492,False,3.875,3.874,3.872,3.871,0.004,False,False,1.838,93.4,93.3,93.3,,,,,,,,,Idle,,,,,,6,Go Home,True,True,True,False,False,False,False,False,True,False,False,False,-33.7547715751088,150.738078429207,0.1,,328.0,True,1,1,False,False,False,False,,True,False,False,,196.8,,16.4,37,E,NE,1.11,1.11,Calm,True,False,,1.12.0,DJI Air 3,1581F6N8C23AR003,6K5FL8K211X7G9,6UZBLAV02102UE,6NVPLASDA003CY,37.5,0.0,3.2,0.223694,5.368656,0,0,DJI Air 3,1581F6N8C23AR003,6K5FL8K211X7G9,6UZBLAV02102UE,6NVPLASDA003CY,DJI Fly,,1.12.0,04601484-5FA3-0032-463F-F2EEFC3903B3,1581F6N8C23AR0035EE6,,,,,,,,,
10/11/2024,3:32:38.60 AM,0m 4.4s,4.4,-33.7547715197408,150.73807782024,3.2,3.2,3.6,110,0.3,0,0.223694,0,0,0,0,-5.368656,0,-0.6,1.9,28.3,28.3,,P-GPS (Brake),Other,,22,5,True,,Air 3,True,False,,Smart,RC,False,True,False,,,True,,False,False,False,False,False,False,False,False,False,False,0,Follow Yaw,0,0,13.4,13.4,False,False,False,False,False,False,,True,Normal,100,100,1024,1024,1024,1024,C,False,False,False,False,False,0,False,False,False,False,72,15.291,2812,3935,15.291,False,3.826,3.823,3.821,3.821,0.005,False,False,1.838,93.4,93.3,93.3,,,,,,,,,Idle,,,,,,6,Go Home,True,True,True,False,False,False,False,False,True,False,False,False,-33.7547715751088,150.738078429207,0.1,,328.0,True,1,1,False,False,False,False,,True,False,False,,196.8,,16.4,37,S,SE,1.11,1.11,Calm,False,False,,1.12.0,DJI Air 3,1581F6N8C23AR003,6K5FL8K211X7G9,6UZBLAV02102UE,6NVPLASDA003CY,37.5,0.0,3.2,0.223694,5.368656,0,0,DJI Air 3,1581F6N8C23AR003,6K5FL8K211X7G9,6UZBLAV02102UE,6NVPLASDA003CY,DJI Fly,,1.12.0,04601484-5FA3-0032-463F-F2EEFC3903B3,1581F6N8C23AR0035EE6,,,,,,,,,
10/11/2024,3:32:38.70 AM,0m 4.5s,4.5,-33.7547715120315,150.738077752865,4.2,4.2,4.2,111,0.3,0,0.223694,0,0,0,0,-4.921268,0,-0.6,1.6,28.4,28.4,,P-GPS (Brake),Other,,22,5,True,,Air 3,True,False,,Smart,RC,False,True,False,,,True,,False,False,False,False,False,False,False,False,False,False,0,Follow Yaw,0,0,13.4,13.4,False,False,False,False,False,False,,True,Normal,100,100,1024,1024,1024,1024,C,False,False,False,False,False,0,False,False,False,False,72,15.291,2812,3935,15.291,False,3.826,3.823,3.821,3.821,0.005,False,False,1.838,93.4,93.3,93.3,,,,,,,,,Idle,,,,,,6,Go Home,True,True,True,False,False,False,False,False,True,False,False,False,-33.7547715751088,150.738078429207,0.2,,328.0,True,1,1,False,False,False,False,,True,False,False,,196.8,,16.4,37,SE,E,1.11,1.11,Calm,False,False,,1.12.0,DJI Air 3,1581F6N8C23AR003,6K5FL8K211X7G9,6UZBLAV02102UE,6NVPLASDA003CY,37.5,0.0,3.2,0.223694,5.368656,0,0,DJI Air 3,1581F6N8C23AR003,6K5FL8K211X7G9,6UZBLAV02102UE,6NVPLASDA003CY,DJI Fly,,1.12.0,04601484-5FA3-0032-463F-F2EEFC3903B3,1581F6N8C23AR0035EE6,,,,,,,,,
10/11/2024,3:32:38.80 AM,0m 4.6s,4.6,-33.7547713603358,150.738077734853,4.9,4.9,4.9,112,0.4,0,0.223694,0,0,0,0,-4.250186,0,-0.4,1.5,28.6,28.6,,P-GPS (Brake),Other,,22,5,True,,Air 3,True,False,,Smart,RC,False,True,False,,,True,,False,False,False,False,False,False,False,False,False,False,0,Follow Yaw,0,0,13.4,13.4,False,False,False,False,False,False,,True,Normal,100,100,1024,1024,1024,1024,C,False,False,False,False,False,0,False,False,False,False,72,15.291,2812,3935,15.291,False,3.826,3.823,3.821,3.821,0.005,False,False,1.838,93.4,93.3,93.3,,,,,,,,,Idle,,,,,,6,Go Home,True,True,True,False,False,False,False,False,True,False,False,False,-33.7547715751088,150.738078429207,0.2,,328.0,True,1,1,False,False,False,False,,True,False,False,,196.8,,16.4,37,E,NE,1.11,1.11,Calm,True,False,,1.12.0,DJI Air 3,1581F6N8C23AR003,6K5FL8K211X7G9,6UZBLAV02102UE,6NVPLASDA003CY,37.5,0.0,3.2,0.223694,5.368656,0,0,DJI Air 3,1581F6N8C23AR003,6K5FL8K211X7G9,6UZBLAV02102UE,6NVPLASDA003CY,DJI Fly,,1.12.0,04601484-5FA3-0032-463F-F2EEFC3903B3,1581F6N8C23AR0035EE6,,,,,,,,,
10/11/2024,3:32:38.91 AM,0m 4.7s,4.7,-33.7547712272596,150.738077733548,5.5,5.5,5.5,112,0.4,0,0.223694,0,0,0,0,-3.35541,0,0,1.3,28.8,28.8,,P-GPS (Brake),Other,,22,5,True,,Air 3,True,False,,Smart,RC,False,True,False,,,True,,False,False,False,False,False,False,False,False,False,False,0,Follow Yaw,0,0,13.4,13.4,False,False,False,False,False,False,,True,Normal,100,100,1024,1024,1024,1024,C,False,False,False,False,False,0,False,False,False,False,72,15.291,2812,3935,15.291,False,3.826,3.823,3.821,3.821,0.005,False,False,1.838,93.4,93.3,93.3,,,,,,,,,Idle,,,,,,6,Go Home,True,True,True,False,False,False,False,False,True,False,False,False,-33.7547715751088,150.738078429207,0.2,,328.0,True,1,1,False,False,False,False,,True,False,False,,196.8,,16.4,37,E,NE,1.11,1.11,Calm,True,False,,1.12.0,DJI Air 3,1581F6N8C23AR003,6K5FL8K211X7G9,6UZBLAV02102UE,6NVPLASDA003CY,37.5,0.0,3.2,0.223694,5.368656,0,0,DJI Air 3,1581F6N8C23AR003,6K5FL8K211X7G9,6UZBLAV02102UE,6NVPLASDA003CY,DJI Fly,,1.12.0,04601484-5FA3-0032-463F-F2EEFC3903B3,1581F6N8C23AR0035EE6,,,,,,,,,
10/11/2024,3:32:39.01 AM,0m 4.8s,4.8,-33.7547712526053,150.738077558049,5.9,5.9,5.9,113,0.5,0,0.223694,0,0,0,0,-2.23694,0,0.4,1.2,28.7,28.7,,P-GPS (Brake),Other,,22,5,True,,Air 3,True,False,,Smart,RC,False,True,False,,,True,,False,False,False,False,False,False,False,False,False,False,0,Follow Yaw,0,0,13.4,13.4,False,False,False,False,False,False,,True,Normal,100,100,1024,1024,1024,1024,C,False,False,False,False,False,0,False,False,False,False,72,15.291,2809,3935,15.291,False,3.826,3.823,3.821,3.821,0.005,False,False,8.019,93.6,93.3,93.5,,,,,,,,,Idle,,,,,,6,Go Home,True,True,True,False,False,False,False,False,True,False,False,False,-33.7547715751088,150.738078429207,0.2,,328.0,True,1,1,False,False,False,False,,True,False,False,,196.8,,16.4,37,NE,N,1.11,1.11,Calm,True,False,,1.12.0,DJI Air 3,1581F6N8C23AR003,6K5FL8K211X7G9,6UZBLAV02102UE,6NVPLASDA003CY,37.5,0.0,3.2,0.223694,5.368656,0,0,DJI Air 3,1581F6N8C23AR003,6K5FL8K211X7G9,6UZBLAV02102UE,6NVPLASDA003CY,DJI Fly,,1.12.0,04601484-5FA3-0032-463F-F2EEFC3903B3,1581F6N8C23AR0035EE6,,,,,,,,,
10/11/2024,3:32:39.11 AM,0m 4.9s,4.9,-33.7547711981974,150.738077554925,6.2,6.2,5.9,113,0.5,0,0.223694,0,0,0,0,-1.11847,0,0.5,1.1,28.7,28.7,,P-GPS (Brake),Other,,22,5,True,,Air 3,True,False,,Smart,RC,False,True,False,,,True,,False,False,False,False,False,False,False,False,False,False,0,Follow Yaw,0,0,13.4,13.4,False,False,False,False,False,False,,True,Normal,100,100,1024,1024,1024,1024,C,False,False,False,False,False,0,False,False,False,False,72,15.291,2809,3935,15.291,False,3.826,3.823,3.821,3.821,0.005,False,False,8.019,93.6,93.3,93.5,,,,,,,,,Idle,,,,,,6,Go Home,True,True,True,False,False,False,False,False,True,False,False,False,-33.7547715751088,150.738078429207,0.2,,328.0,True,1,1,False,False,False,False,,True,False,False,,196.8,,16.4,37,E,NE,1.11,1.11,Calm,True,False,,1.12.0,DJI Air 3,1581F6N8C23AR003,6K5FL8K211X7G9,6UZBLAV02102UE,6NVPLASDA003CY,37.5,0.0,3.2,0.223694,5.368656,0,0,DJI Air 3,1581F6N8C23AR003,6K5FL8K211X7G9,6UZBLAV02102UE,6NVPLASDA003CY,DJI Fly,,1.12.0,04601484-5FA3-0032-463F-F2EEFC3903B3,1581F6N8C23AR0035EE6,,,,,,,,,
10/11/2024,3:32:39.21 AM,0m 5.0s,5.0,-33.754771334377,150.738077466087,6.2,6.2,6.2,113,0.6,0,0.223694,0,0,0,0,-0.223694,0,0.4,0.9,28.8,28.8,,P-GPS (Brake),Other,,22,5,True,,Air 3,True,False,,Smart,RC,False,True,False,,,True,,False,False,False,False,False,False,False,False,False,False,0,Follow Yaw,0,0,13.4,13.4,False,False,False,False,False,False,,True,Normal,100,100,1024,1024,1024,1024,C,False,False,False,False,False,0,False,False,False,False,72,15.291,2809,3935,15.291,False,3.826,3.823,3.821,3.821,0.005,False,False,8.019,93.6,93.3,93.5,,,,,,,,,Idle,,,,,,6,Go Home,True,True,True,False,False,False,False,False,True,False,False,False,-33.7547715751088,150.738078429207,0.3,,328.0,True,1,1,False,False,False,False,,True,False,False,,196.8,,16.4,37,E,NE,1.11,1.11,Calm,True,False,,1.12.0,DJI Air 3,1581F6N8C23AR003,6K5FL8K211X7G9,6UZBLAV02102UE,6NVPLASDA003CY,37.5,0.0,3.2,0.223694,5.368656,0,0,DJI Air 3,1581F6N8C23AR003,6K5FL8K211X7G9,6UZBLAV02102UE,6NVPLASDA003CY,DJI Fly,,1.12.0,04601484-5FA3-0032-463F-F2EEFC3903B3,1581F6N8C23AR0035EE6,,,,,,,,,
10/11/2024,3:32:39.31 AM,0m 5.1s,5.1,-33.7547713116181,150.738077444548,6.2,6.2,6.2,113,0.6,0,0.223694,0,0,0,0,0,0,0.3,0.8,28.7,28.7,,P-GPS (Brake),Other,,22,5,True,,Air 3,True,False,,Smart,RC,False,True,False,,,True,,False,False,False,False,False,False,False,False,False,False,0,Follow Yaw,0,0,13.4,13.4,False,False,False,False,False,False,,True,Normal,100,100,1024,1024,1024,1024,C,False,False,False,False,False,0,False,False,False,False,72,15.291,2809,3935,15.291,False,3.826,3.823,3.821,3.821,0.005,False,False,8.019,93.6,93.3,93.5,,,,,,,,,Idle,,,,,,6,Go Home,True,True,True,False,False,False,False,False,True,False,False,False,-33.7547715751088,150.738078429207,0.3,,328.0,True,1,1,False,False,False,False,,True,False,False,,196.8,,16.4,37,SE,E,1.11,1.11,Calm,False,False,,1.12.0,DJI Air 3,1581F6N8C23AR003,6K5FL8K211X7G9,6UZBLAV02102UE,6NVPLASDA003CY,37.5,0.0,3.2,0.223694,5.368656,0,0,DJI Air 3,1581F6N8C23AR003,6K5FL8K211X7G9,6UZBLAV02102UE,6NVPLASDA003CY,DJI Fly,,1.12.0,04601484-5FA3-0032-463F-F2EEFC3903B3,1581F6N8C23AR0035EE6,,,,,,,,,
10/11/2024,3:32:39.41 AM,0m 5.2s,5.2,-33.7547714662142,150.738077319398,6.2,6.2,5.9,113,0.7,0,0.223694,0,0,0,0,0.223694,0.223694,0.1,0.7,28.8,28.8,,P-GPS (Brake),Other,,22,5,True,,Air 3,True,False,,Smart,RC,False,True,False,,,True,,False,False,False,False,False,False,False,False,False,False,0,Follow Yaw,0,0,13.4,13.4,False,False,False,False,False,False,,True,Normal,100,100,1024,1024,1024,1024,C,False,False,False,False,False,0,False,False,False,False,72,15.291,2809,3935,15.291,False,3.826,3.823,3.821,3.821,0.005,False,False,8.019,93.6,93.3,93.5,,,,,,,,,Idle,,,,,,6,Go Home,True,True,True,False,False,False,False,False,True,False,False,False,-33.7547715751088,150.738078429207,0.3,,328.0,True,1,1,False,False,False,False,,True,False,False,,196.8,,16.4,37,SE,E,1.11,1.11,Calm,False,False,,1.12.0,DJI Air 3,1581F6N8C23AR003,6K5FL8K211X7G9,6UZBLAV02102UE,6NVPLASDA003CY,37.5,0.0,3.2,0.223694,5.368656,0,0,DJI Air 3,1581F6N8C23AR003,6K5FL8K211X7G9,6UZBLAV02102UE,6NVPLASDA003CY,DJI Fly,,1.12.0,04601484-5FA3-0032-463F-F2EEFC3903B3,1581F6N8C23AR0035EE6,,,,,,,,,
10/11/2024,3:32:39.52 AM,0m 5.3s,5.3,-33.7547715137246,150.738077273462,6.2,6.2,5.9,113,0.7,0,0.223694,0,0,0,0,0.223694,0.223694,0.1,0.7,28.9,28.9,,P-GPS (Brake),Other,,22,5,True,,Air 3,True,False,,Smart,RC,False,True,False,,,True,,False,False,False,False,False,False,False,False,False,False,0,Follow Yaw,0,0,13.4,13.4,False,False,False,False,False,False,,True,Normal,100,100,1024,1024,1024,1024,C,False,False,False,False,False,0,False,False,False,False,72,15.291,2809,3935,15.291,False,3.826,3.823,3.821,3.821,0.005,False,False,8.019,93.6,93.3,93.5,,,,,,,,,Idle,,,,,,6,Go Home,True,True,True,False,False,False,False,False,True,False,False,False,-33.7547715751088,150.738078429207,0.3,,328.0,True,1,1,False,False,False,False,,True,False,False,,196.8,,16.4,37,SE,E,1.11,1.11,Calm,False,False,,1.12.0,DJI Air 3,1581F6N8C23AR003,6K5FL8K211X7G9,6UZBLAV02102UE,6NVPLASDA003CY,37.5,0.0,3.2,0.223694,5.368656,0,0,DJI Air 3,1581F6N8C23AR003,6K5FL8K211X7G9,6UZBLAV02102UE,6NVPLASDA003CY,DJI Fly,,1.12.0,04601484-5FA3-0032-463F-F2EEFC3903B3,1581F6N8C23AR0035EE6,,,,,,,,,
