sep=,
CUSTOM.date [local],CUSTOM.updateTime [local],OSD.flyTime,OSD.flyTime [s],OSD.latitude,OSD.longitude,OSD.height [ft],OSD.heightMax [ft],OSD.vpsHeight [ft],OSD.altitude [ft],OSD.mileage [ft],OSD.hSpeed [MPH],OSD.hSpeedMax [MPH],OSD.xSpeed [MPH],OSD.xSpeedMax [MPH],OSD.ySpeed [MPH],OSD.ySpeedMax [MPH],OSD.zSpeed [MPH],OSD.zSpeedMax [MPH],OSD.pitch,OSD.roll,OSD.yaw,OSD.yaw [360],OSD.directionOfTravel,OSD.flycState,OSD.flycCommand,OSD.flightAction,OSD.gpsNum,OSD.gpsLevel,OSD.isGPSUsed,OSD.nonGPSCause,OSD.droneType,OSD.isSwaveWork,OSD.waveError,OSD.goHomeStatus,OSD.batteryType,OSD.ctrlDevice,OSD.isOnGround,OSD.isMotorOn,OSD.isMotorBlocked,OSD.motorStartFailedCause,OSD.motorFailReason,OSD.isImuPreheated,OSD.imuInitFailReason,OSD.isAcceletorOverRange,OSD.isBarometerDeadInAir,OSD.isCompassError,OSD.isGoHomeHeightModified,OSD.canIOCWork,OSD.isNotEnoughForce,OSD.isOutOfLimit,OSD.isPropellerCatapult,OSD.isVibrating,OSD.isVisionUsed,OSD.voltageWarning,GIMBAL.mode,GIMBAL.pitch,GIMBAL.roll,GIMBAL.yaw,GIMBAL.yaw [360],GIMBAL.isPitchAtLimit,GIMBAL.isRollAtLimit,GIMBAL.isYawAtLimit,GIMBAL.isStuck,CAMERA.isPhoto,CAMERA.isVideo,CAMERA.filename,CAMERA.sdCardIsInserted,CAMERA.sdCardState,RC.downlinkSignal,RC.uplinkSignal,RC.aileron,RC.elevator,RC.throttle,RC.rudder,RC.mode,RC.goHomeDepressed,RC.recordDepressed,RC.shutterDepressed,RC.playbackDepressed,RC.wheelDepressed,RC.wheelOffset,RC.custom1Depressed,RC.custom2Depressed,RC.custom3Depressed,RC.custom4Depressed,BATTERY.chargeLevel,BATTERY.currentPV [V],BATTERY.currentCapacity [mAh],BATTERY.fullCapacity [mAh],BATTERY.voltage [V],BATTERY.isCellVoltageEstimated,BATTERY.cellVoltage1 [V],BATTERY.cellVoltage2 [V],BATTERY.cellVoltage3 [V],BATTERY.cellVoltage4 [V],BATTERY.maxCellVoltageDeviation,BATTERY.isCellVoltageDeviationHigh,BATTERY.isVoltageLow,BATTERY.current [A],BATTERY.temperature [F],BATTERY.minTemperature [F],BATTERY.maxTemperature [F],BATTERY.usefulTime [s],BATTERY.goHomeTime [s],BATTERY.landTime [s],BATTERY.goHomeBattery,BATTERY.landBattery,BATTERY.safeFlyRadius,BATTERY.volumeConsume,BATTERY.status,BATTERY.goHomeStatus,BATTERY.goHomeCountdown,BATTERY.lowWarning,BATTERY.lowWarningGoHome,BATTERY.seriousLowWarning,BATTERY.seriousLowWarningLanding,BATTERY.timesCharged,MC.failSafeAction,MC.isObstacleAvoidanceEnabled,MC.isCollisionAvoidanceEnabled,MC.isRthObstacleAvoidanceEnabled,MC.isBraking,MC.isAvoidingObstacle,MC.isAvoidingActiveObstacle,MC.isAscentLimitedByObstacle,MC.isLandingConfirmationNeeded,MC.atLowAltitudeLimit,MC.atDistanceLimit,MC.atAirportAltitudeLimit,MC.atAirportBoundary,HOME.latitude,HOME.longitude,HOME.distance [ft],HOME.height [ft],HOME.heightLimit [ft],HOME.isHomeRecord,HOME.goHomeMode,HOME.aircraftHeadDirection,HOME.isDynamicHomePointEnabled,HOME.isReachedLimitDistance,HOME.isReachedLimitHeight,HOME.isCompassCalibrating,HOME.compassCalibrationState,HOME.isMultipleFlightModeEnabled,HOME.isBeginnerMode,HOME.isIOCEnabled,HOME.iocMode,HOME.goHomeHeight [ft],HOME.courseLockAngle,HOME.forceLandingHeight [ft],HOME.dataRecorderFileIndex,WEATHER.windDirection,WEATHER.windRelativeDirection,WEATHER.windSpeed [MPH],WEATHER.maxWindSpeed [MPH],WEATHER.windStrength,WEATHER.isFacingWind,WEATHER.isFlyingIntoWind,RECOVER.appType,RECOVER.appVersion,RECOVER.aircraftName,RECOVER.aircraftSerial,RECOVER.cameraSerial,RECOVER.rcSerial,RECOVER.batterySerial,DETAILS.totalTime [s],DETAILS.totalDistance [ft],DETAILS.maxHeight [ft],DETAILS.maxHorizontalSpeed [MPH],DETAILS.maxVerticalSpeed [MPH],DETAILS.photoNum,DETAILS.videoTime [s],DETAILS.aircraftName,DETAILS.aircraftSerial,DETAILS.cameraSerial,DETAILS.rcSerial,DETAILS.batterySerial,DETAILS.appName,DETAILS.appType,DETAILS.appVersion,DETAILS.guid,SERIAL.flightController,SERIAL.camera,SERIAL.gimbal,SERIAL.rc,SERIAL.battery,APPGPS.latitude,APPGPS.longitude,APPGPS.accuracy,APP.tip,APP.warning
10/11/2024,4:49:12.63 AM,0m 0.0s,0.0,-33.7548332342612,150.738137762576,0,0,,103,0,0,0,0,0,0,0,0,0,5.2,0,126.2,126.2,,P-GPS (Brake),Other,,32,5,True,,Air 3,False,False,,Smart,RC,True,True,False,,,True,,False,False,False,False,False,False,False,False,False,False,0,Follow Yaw,0,0,113.6,113.6,False,False,False,False,False,False,,True,Normal,,,364,364,364,1684,C,False,False,False,False,False,0,False,False,False,False,46,14.613,1809,3991,14.613,True,3.653,3.653,3.653,3.653,,False,False,1.044,102.6,102.5,102.5,,,,,,,,,Idle,,,,,,6,Go Home,True,True,True,False,False,False,False,False,False,False,False,False,,,,,,False,,,False,False,False,False,,False,False,False,,,,,,,,,,Calm,False,False,,1.12.0,DJI Air 3,1581F6N8C23AR003,6K5FL8K211X7G9,6UZBLAV02102UE,6NVPLASDA003CY,162.9,1.7,242.7,25.499102,13.42164,0,0,DJI Air 3,1581F6N8C23AR003,6K5FL8K211X7G9,6UZBLAV02102UE,6NVPLASDA003CY,DJI Fly,,1.12.0,1FE95EF4-9D83-3910-FAC3-6F8B3161D691,1581F6N8C23AR0035EE6,,,,,,,,Aircraft in Altitude Zone (500 m). Fly with caution).; Aircraft not in flight. Vision systems and obstacle avoidance disabled (Code: 180059).; Flight mode changed to P-GPS (Brake).,
10/11/2024,4:49:12.75 AM,0m 0.1s,0.1,-33.7548332340609,150.738137761981,0,0,,103,0,0,0,0,0,0,0,0,0,5.2,0,126.2,126.2,,Starting Motors,Other,,32,5,True,,Air 3,False,False,,Smart,RC,True,True,False,,,True,,False,False,False,False,False,False,False,False,False,False,0,Follow Yaw,0,0,113.6,113.6,False,False,False,False,False,False,,True,Normal,,,364,364,364,1684,C,False,False,False,False,False,0,False,False,False,False,46,14.613,1809,3991,14.613,True,3.653,3.653,3.653,3.653,,False,False,1.044,102.6,102.5,102.5,,,,,,,,,Idle,,,,,,6,Go Home,True,True,True,False,False,False,False,False,False,False,False,False,,,,,,False,,,False,False,False,False,,False,False,False,,,,,,,,,,Calm,False,False,,1.12.0,DJI Air 3,1581F6N8C23AR003,6K5FL8K211X7G9,6UZBLAV02102UE,6NVPLASDA003CY,162.9,1.7,242.7,25.499102,13.42164,0,0,DJI Air 3,1581F6N8C23AR003,6K5FL8K211X7G9,6UZBLAV02102UE,6NVPLASDA003CY,DJI Fly,,1.12.0,1FE95EF4-9D83-3910-FAC3-6F8B3161D691,1581F6N8C23AR0035EE6,,,,,,,,Flight mode changed to Starting Motors.,
10/11/2024,4:49:12.86 AM,0m 0.2s,0.2,-33.7548332233939,150.738137763727,0,0,,103,0,0,0,0,0,0,0,0,0,5.2,0.1,126.2,126.2,,Starting Motors,Other,,32,5,True,,Air 3,False,False,,Smart,RC,True,True,False,,,True,,False,False,False,False,False,False,False,False,False,False,0,Follow Yaw,0,0,113.6,113.6,False,False,False,False,False,False,,True,Normal,,,364,364,364,1684,C,False,False,False,False,False,0,False,False,False,False,46,14.613,1809,3991,14.613,True,3.653,3.653,3.653,3.653,,False,False,1.044,102.6,102.5,102.5,,,,,,,,,Idle,,,,,,6,Go Home,True,True,True,False,False,False,False,False,False,False,False,False,,,,,,False,,,False,False,False,False,,False,False,False,,,,,,,,,,Calm,False,False,,1.12.0,DJI Air 3,1581F6N8C23AR003,6K5FL8K211X7G9,6UZBLAV02102UE,6NVPLASDA003CY,162.9,1.7,242.7,25.499102,13.42164,0,0,DJI Air 3,1581F6N8C23AR003,6K5FL8K211X7G9,6UZBLAV02102UE,6NVPLASDA003CY,DJI Fly,,1.12.0,1FE95EF4-9D83-3910-FAC3-6F8B3161D691,1581F6N8C23AR0035EE6,,,,,,,,,
10/11/2024,4:49:12.96 AM,0m 0.3s,0.3,-33.7548332188244,150.738137760545,0,0,0.3,103,0,0,0,0,0,0,0,0,0,5.2,0,126.2,126.2,,Starting Motors,Other,,32,5,True,,Air 3,True,False,,Smart,RC,True,True,False,,,True,,False,False,False,False,False,False,False,False,False,False,0,Follow Yaw,0,0,113.6,113.6,False,False,False,False,False,False,,True,Normal,,,364,364,364,1684,C,False,False,False,False,False,0,False,False,False,False,46,14.613,1809,3991,14.613,True,3.653,3.653,3.653,3.653,,False,False,1.044,102.6,102.5,102.5,,,,,,,,,Idle,,,,,,6,Go Home,True,True,True,False,False,False,False,False,False,False,False,False,,,,,,False,,,False,False,False,False,,False,False,False,,,,,,,,,,Calm,False,False,,1.12.0,DJI Air 3,1581F6N8C23AR003,6K5FL8K211X7G9,6UZBLAV02102UE,6NVPLASDA003CY,162.9,1.7,242.7,25.499102,13.42164,0,0,DJI Air 3,1581F6N8C23AR003,6K5FL8K211X7G9,6UZBLAV02102UE,6NVPLASDA003CY,DJI Fly,,1.12.0,1FE95EF4-9D83-3910-FAC3-6F8B3161D691,1581F6N8C23AR0035EE6,,,,,,,,,
10/11/2024,4:49:13.06 AM,0m 0.4s,0.4,-33.7548332454011,150.738137772632,0,0,0.3,103,0,0,0,0,0,0,0,0,0,5.2,0,126.2,126.2,,Starting Motors,Other,,32,5,True,,Air 3,True,False,,Smart,RC,True,True,False,,,True,,False,False,False,False,False,False,False,False,False,False,0,Follow Yaw,0,0,113.6,113.6,False,False,False,False,False,False,,True,Normal,,,364,364,364,1684,C,False,False,False,False,False,0,False,False,False,False,46,14.613,1809,3991,14.613,True,3.653,3.653,3.653,3.653,,False,False,1.044,102.6,102.5,102.5,,,,,,,,,Idle,,,,,,6,Go Home,True,True,True,False,False,False,False,False,False,False,False,False,,,,,,False,,,False,False,False,False,,False,False,False,,,,,,,,,,Calm,False,False,,1.12.0,DJI Air 3,1581F6N8C23AR003,6K5FL8K211X7G9,6UZBLAV02102UE,6NVPLASDA003CY,162.9,1.7,242.7,25.499102,13.42164,0,0,DJI Air 3,1581F6N8C23AR003,6K5FL8K211X7G9,6UZBLAV02102UE,6NVPLASDA003CY,DJI Fly,,1.12.0,1FE95EF4-9D83-3910-FAC3-6F8B3161D691,1581F6N8C23AR0035EE6,,,,,,,,,
10/11/2024,4:49:13.16 AM,0m 0.5s,0.5,-33.7548332418543,150.738137772451,0,0,0.3,103,0,0,0,0,0,0,0,0,0,5.2,0,126.2,126.2,,Starting Motors,Other,,32,5,True,,Air 3,True,False,,Smart,RC,True,True,False,,,True,,False,False,False,False,False,False,False,False,False,False,0,Follow Yaw,0,0,113.6,113.6,False,False,False,False,False,False,,True,Normal,,,364,364,364,1684,C,False,False,False,False,False,0,False,False,False,False,46,14.613,1809,3991,14.613,True,3.653,3.653,3.653,3.653,,False,False,1.044,102.6,102.5,102.5,,,,,,,,,Idle,,,,,,6,Go Home,True,True,True,False,False,False,False,False,False,False,False,False,,,,,,False,,,False,False,False,False,,False,False,False,,,,,,,,,,Calm,False,False,,1.12.0,DJI Air 3,1581F6N8C23AR003,6K5FL8K211X7G9,6UZBLAV02102UE,6NVPLASDA003CY,162.9,1.7,242.7,25.499102,13.42164,0,0,DJI Air 3,1581F6N8C23AR003,6K5FL8K211X7G9,6UZBLAV02102UE,6NVPLASDA003CY,DJI Fly,,1.12.0,1FE95EF4-9D83-3910-FAC3-6F8B3161D691,1581F6N8C23AR0035EE6,,,,,,,,,
10/11/2024,4:49:13.27 AM,0m 0.6s,0.6,-33.7548332450429,150.73813777412,0,0,0.3,103,0,0,0,0,0,0,0,0,0,5.2,0.1,126.2,126.2,,Starting Motors,Other,,32,5,True,,Air 3,True,False,,Smart,RC,True,True,False,,,True,,False,False,False,False,False,False,False,False,False,False,0,Follow Yaw,0,0,113.6,113.6,False,False,False,False,False,False,,True,Normal,100,100,364,364,364,1684,C,False,False,False,False,False,0,False,False,False,False,46,14.614,1808,3991,14.614,False,3.654,3.655,3.653,3.652,0.003,False,False,1.251,102.4,102.3,102.5,,,,,,,,,Idle,,,,,,6,Go Home,True,True,True,False,False,False,False,False,False,False,False,False,,,,,,False,,,False,False,False,False,,False,False,False,,,,,,,,,,Calm,False,False,,1.12.0,DJI Air 3,1581F6N8C23AR003,6K5FL8K211X7G9,6UZBLAV02102UE,6NVPLASDA003CY,162.9,1.7,242.7,25.499102,13.42164,0,0,DJI Air 3,1581F6N8C23AR003,6K5FL8K211X7G9,6UZBLAV02102UE,6NVPLASDA003CY,DJI Fly,,1.12.0,1FE95EF4-9D83-3910-FAC3-6F8B3161D691,1581F6N8C23AR0035EE6,,,,,,,,,
10/11/2024,4:49:13.37 AM,0m 0.7s,0.7,-33.7548332491679,150.738137774722,0,0,0.3,103,0,0,0,0,0,0,0,0,0,5.2,0,126.2,126.2,,Starting Motors,Other,,32,5,True,,Air 3,True,False,,Smart,RC,True,True,False,,,True,,False,False,False,False,False,False,False,False,False,False,0,Follow Yaw,0,0,113.6,113.6,False,False,False,False,False,False,,True,Normal,100,100,364,364,364,1684,C,False,False,False,False,False,0,False,False,False,False,46,14.614,1808,3991,14.614,False,3.654,3.655,3.653,3.652,0.003,False,False,1.251,102.4,102.3,102.5,,,,,,,,,Idle,,,,,,6,Go Home,True,True,True,False,False,False,False,False,False,False,False,False,,,,,,False,,,False,False,False,False,,False,False,False,,,,,,,,,,Calm,False,False,,1.12.0,DJI Air 3,1581F6N8C23AR003,6K5FL8K211X7G9,6UZBLAV02102UE,6NVPLASDA003CY,162.9,1.7,242.7,25.499102,13.42164,0,0,DJI Air 3,1581F6N8C23AR003,6K5FL8K211X7G9,6UZBLAV02102UE,6NVPLASDA003CY,DJI Fly,,1.12.0,1FE95EF4-9D83-3910-FAC3-6F8B3161D691,1581F6N8C23AR0035EE6,,,,,,,,,
10/11/2024,4:49:13.47 AM,0m 0.8s,0.8,-33.7548332240423,150.73813775623,0,0,0.3,103,0,0,0,0,0,0,0,0,0,5.1,0,126.2,126.2,,Starting Motors,Other,,32,5,True,,Air 3,True,False,,Smart,RC,True,True,False,,,True,,False,False,False,False,False,False,False,False,False,False,0,Follow Yaw,0,0,113.5,113.5,False,False,False,False,False,False,,True,Normal,100,100,364,364,364,1684,C,False,False,False,False,False,0,False,False,False,False,46,14.614,1808,3991,14.614,False,3.654,3.655,3.653,3.652,0.003,False,False,1.251,102.4,102.3,102.5,,,,,,,,,Idle,,,,,,6,Go Home,True,True,True,False,False,False,False,False,False,False,False,False,-33.7548363904087,150.738129265704,2.8,,328.0,True,1,1,False,False,False,False,,True,False,False,,196.8,,16.4,41,,,,,Calm,False,False,,1.12.0,DJI Air 3,1581F6N8C23AR003,6K5FL8K211X7G9,6UZBLAV02102UE,6NVPLASDA003CY,162.9,1.7,242.7,25.499102,13.42164,0,0,DJI Air 3,1581F6N8C23AR003,6K5FL8K211X7G9,6UZBLAV02102UE,6NVPLASDA003CY,DJI Fly,,1.12.0,1FE95EF4-9D83-3910-FAC3-6F8B3161D691,1581F6N8C23AR0035EE6,,,,,,,,Data Recorder File Index is 41.; Set Return to Home (RTH) altitude to 60 m (197 ft).; Set maximum flight altitude to 100 m (328 ft).,
10/11/2024,4:49:13.57 AM,0m 0.9s,0.9,-33.7548332132199,150.73813774414,0,0,0.3,103,0,0,0,0,0,0,0,0,0,5.2,0,126.2,126.2,,Starting Motors,Other,,32,5,True,,Air 3,True,False,,Smart,RC,True,True,False,,,True,,False,False,False,False,False,False,False,False,False,False,0,Follow Yaw,0,0,113.5,113.5,False,False,False,False,False,False,,True,Normal,100,100,364,364,364,1684,C,False,False,False,False,False,0,False,False,False,False,46,14.614,1808,3991,14.614,False,3.654,3.655,3.653,3.652,0.003,False,False,1.251,102.4,102.3,102.5,,,,,,,,,Idle,,,,,,6,Go Home,True,True,True,False,False,False,False,False,False,False,False,False,-33.7548363904087,150.738129265704,2.8,,328.0,True,1,1,False,False,False,False,,True,False,False,,196.8,,16.4,41,,,,,Calm,False,False,,1.12.0,DJI Air 3,1581F6N8C23AR003,6K5FL8K211X7G9,6UZBLAV02102UE,6NVPLASDA003CY,162.9,1.7,242.7,25.499102,13.42164,0,0,DJI Air 3,1581F6N8C23AR003,6K5FL8K211X7G9,6UZBLAV02102UE,6NVPLASDA003CY,DJI Fly,,1.12.0,1FE95EF4-9D83-3910-FAC3-6F8B3161D691,1581F6N8C23AR0035EE6,,,,,,,,,
10/11/2024,4:49:13.67 AM,0m 1.0s,1.0,-33.7548331985311,150.738137784401,0,0,0.3,103,0,0,0,0,0,0,0,0,0,5.1,0.1,126.2,126.2,,Starting Motors,Other,,32,5,True,,Air 3,True,False,,Smart,RC,True,True,False,,,True,,False,False,False,False,False,False,False,False,False,False,0,Follow Yaw,0,0,113.5,113.5,False,False,False,False,False,False,,True,Normal,100,100,364,364,364,1684,C,False,False,False,False,False,0,False,False,False,False,46,14.614,1808,3991,14.614,False,3.654,3.655,3.653,3.652,0.003,False,False,1.251,102.4,102.3,102.5,,,,,,,,,Idle,,,,,,6,Go Home,True,True,True,False,False,False,False,False,False,False,False,False,-33.7548363904087,150.738129265704,2.8,,328.0,True,1,1,False,False,False,False,,True,False,False,,196.8,,16.4,41,,,,,Calm,False,False,,1.12.0,DJI Air 3,1581F6N8C23AR003,6K5FL8K211X7G9,6UZBLAV02102UE,6NVPLASDA003CY,162.9,1.7,242.7,25.499102,13.42164,0,0,DJI Air 3,1581F6N8C23AR003,6K5FL8K211X7G9,6UZBLAV02102UE,6NVPLASDA003CY,DJI Fly,,1.12.0,1FE95EF4-9D83-3910-FAC3-6F8B3161D691,1581F6N8C23AR0035EE6,,,,,,,,,
10/11/2024,4:49:13.73 AM,0m 1.1s,1.1,-33.7548331844436,150.738137778261,0,0,0.3,103,0,0,0,0,0,0,0,0,0,5.1,0,126.1,126.1,,Starting Motors,Other,,32,5,True,,Air 3,True,False,,Smart,RC,True,True,False,,,True,,False,False,False,False,False,False,False,False,False,False,0,Follow Yaw,0,0,113.5,113.5,False,False,False,False,False,False,,True,Normal,100,100,364,364,364,1684,C,False,False,False,False,False,0,False,False,False,False,46,14.614,1808,3991,14.614,False,3.654,3.655,3.653,3.652,0.003,False,False,1.251,102.4,102.3,102.5,,,,,,,,,Idle,,,,,,6,Go Home,True,True,True,False,False,False,False,False,False,False,False,False,-33.7548363904087,150.738129265704,2.8,,328.0,True,1,1,False,False,False,False,,True,False,False,,196.8,,16.4,41,,,,,Calm,False,False,,1.12.0,DJI Air 3,1581F6N8C23AR003,6K5FL8K211X7G9,6UZBLAV02102UE,6NVPLASDA003CY,162.9,1.7,242.7,25.499102,13.42164,0,0,DJI Air 3,1581F6N8C23AR003,6K5FL8K211X7G9,6UZBLAV02102UE,6NVPLASDA003CY,DJI Fly,,1.12.0,1FE95EF4-9D83-3910-FAC3-6F8B3161D691,1581F6N8C23AR0035EE6,,,,,,,,,
10/11/2024,4:49:13.83 AM,0m 1.2s,1.2,-33.754833207866,150.738137800424,0,0,0.3,103,0,0,0,0,0,0,0,0,0,5.1,0,126.2,126.2,,Starting Motors,Other,,32,5,True,,Air 3,True,False,,Smart,RC,True,True,False,,,True,,False,False,False,False,False,False,False,False,False,False,0,Follow Yaw,0,0,113.5,113.5,False,False,False,False,False,False,,True,Normal,100,100,364,364,364,1684,C,False,False,False,False,False,0,False,False,False,False,46,14.614,1808,3991,14.614,False,3.654,3.655,3.653,3.652,0.003,False,False,1.251,102.4,102.3,102.5,,,,,,,,,Idle,,,,,,6,Go Home,True,True,True,False,False,False,False,False,False,False,False,False,-33.7548363904087,150.738129265704,2.8,,328.0,True,1,1,False,False,False,False,,True,False,False,,196.8,,16.4,41,,,,,Calm,False,False,,1.12.0,DJI Air 3,1581F6N8C23AR003,6K5FL8K211X7G9,6UZBLAV02102UE,6NVPLASDA003CY,162.9,1.7,242.7,25.499102,13.42164,0,0,DJI Air 3,1581F6N8C23AR003,6K5FL8K211X7G9,6UZBLAV02102UE,6NVPLASDA003CY,DJI Fly,,1.12.0,1FE95EF4-9D83-3910-FAC3-6F8B3161D691,1581F6N8C23AR0035EE6,,,,,,,,,
10/11/2024,4:49:13.93 AM,0m 1.3s,1.3,-33.7548332086081,150.738137772676,0,0,0.3,103,0,0,0,0,0,0,0,0,0,5.1,0.1,125.7,125.7,,Starting Motors,Other,,32,5,True,,Air 3,True,False,,Smart,RC,True,True,False,,,True,,False,False,False,False,False,False,False,False,False,False,0,Follow Yaw,0,0,113.3,113.3,False,False,False,False,False,False,,True,Normal,100,100,364,364,364,1684,C,False,False,False,False,False,0,False,False,False,False,46,14.614,1808,3991,14.614,False,3.654,3.655,3.653,3.652,0.003,False,False,1.251,102.4,102.3,102.5,,,,,,,,,Idle,,,,,,6,Go Home,True,True,True,False,False,False,False,False,False,False,False,False,-33.7548363904087,150.738129265704,2.8,,328.0,True,1,1,False,False,False,False,,True,False,False,,196.8,,16.4,41,,,,,Calm,False,False,,1.12.0,DJI Air 3,1581F6N8C23AR003,6K5FL8K211X7G9,6UZBLAV02102UE,6NVPLASDA003CY,162.9,1.7,242.7,25.499102,13.42164,0,0,DJI Air 3,1581F6N8C23AR003,6K5FL8K211X7G9,6UZBLAV02102UE,6NVPLASDA003CY,DJI Fly,,1.12.0,1FE95EF4-9D83-3910-FAC3-6F8B3161D691,1581F6N8C23AR0035EE6,,,,,,,,,
10/11/2024,4:49:14.03 AM,0m 1.4s,1.4,-33.7548332394791,150.738137710654,0,0,0.3,103,0,0,0,0,0,0,0,0,0,5.1,0.1,125.7,125.7,,Starting Motors,Other,,32,5,True,,Air 3,True,False,,Smart,RC,True,True,False,,,True,,False,False,False,False,False,False,False,False,False,False,0,Follow Yaw,0,0,113.2,113.2,False,False,False,False,False,False,,True,Normal,100,100,364,364,364,1684,C,False,False,False,False,False,0,False,False,False,False,46,14.614,1808,3991,14.614,False,3.654,3.655,3.653,3.652,0.003,False,False,1.251,102.4,102.3,102.5,,,,,,,,,Idle,,,,,,6,Go Home,True,True,True,False,False,False,False,False,False,False,False,False,-33.7548363904087,150.738129265704,2.8,,328.0,True,1,1,False,False,False,False,,True,False,False,,196.8,,16.4,41,,,,,Calm,False,False,,1.12.0,DJI Air 3,1581F6N8C23AR003,6K5FL8K211X7G9,6UZBLAV02102UE,6NVPLASDA003CY,162.9,1.7,242.7,25.499102,13.42164,0,0,DJI Air 3,1581F6N8C23AR003,6K5FL8K211X7G9,6UZBLAV02102UE,6NVPLASDA003CY,DJI Fly,,1.12.0,1FE95EF4-9D83-3910-FAC3-6F8B3161D691,1581F6N8C23AR0035EE6,,,,,,,,,
10/11/2024,4:49:14.13 AM,0m 1.5s,1.5,-33.7548332393795,150.738137684834,0,0,0.3,103,0.1,0,0,0,0,0,0,0,0,5.1,0.1,125.8,125.8,,Starting Motors,Other,,32,5,True,,Air 3,True,False,,Smart,RC,True,True,False,,,True,,False,False,False,False,False,False,False,False,False,False,0,Follow Yaw,0,0,113.1,113.1,False,False,False,False,False,False,,True,Normal,100,100,364,364,364,1684,C,False,False,False,False,False,0,False,False,False,False,46,14.614,1808,3991,14.614,False,3.654,3.655,3.653,3.652,0.003,False,False,1.251,102.4,102.3,102.5,,,,,,,,,Idle,,,,,,6,Go Home,True,True,True,False,False,False,False,False,False,False,False,False,-33.7548363904087,150.738129265704,2.8,,328.0,True,1,1,False,False,False,False,,True,False,False,,196.8,,16.4,41,,,,,Calm,False,False,,1.12.0,DJI Air 3,1581F6N8C23AR003,6K5FL8K211X7G9,6UZBLAV02102UE,6NVPLASDA003CY,162.9,1.7,242.7,25.499102,13.42164,0,0,DJI Air 3,1581F6N8C23AR003,6K5FL8K211X7G9,6UZBLAV02102UE,6NVPLASDA003CY,DJI Fly,,1.12.0,1FE95EF4-9D83-3910-FAC3-6F8B3161D691,1581F6N8C23AR0035EE6,,,,,,,,,
10/11/2024,4:49:14.23 AM,0m 1.6s,1.6,-33.7548332299054,150.73813764476,0,0,0.3,103,0.1,0,0,0,0,0,0,0,0,5.1,0.1,125.7,125.7,,Starting Motors,Other,,32,5,True,,Air 3,True,False,,Smart,RC,True,True,False,,,True,,False,False,False,False,False,False,False,False,False,False,0,Follow Yaw,0,0,113.1,113.1,False,False,False,False,False,False,,True,Normal,100,100,364,364,364,1684,C,False,False,False,False,False,0,False,False,False,False,46,14.554,1807,3991,14.554,False,3.636,3.639,3.64,3.639,0.004,False,False,3.881,102.6,102.3,102.5,,,,,,,,,Idle,,,,,,6,Go Home,True,True,True,False,False,False,False,False,False,False,False,False,-33.7548363904087,150.738129265704,2.7,,328.0,True,1,1,False,False,False,False,,True,False,False,,196.8,,16.4,41,,,,,Calm,False,False,,1.12.0,DJI Air 3,1581F6N8C23AR003,6K5FL8K211X7G9,6UZBLAV02102UE,6NVPLASDA003CY,162.9,1.7,242.7,25.499102,13.42164,0,0,DJI Air 3,1581F6N8C23AR003,6K5FL8K211X7G9,6UZBLAV02102UE,6NVPLASDA003CY,DJI Fly,,1.12.0,1FE95EF4-9D83-3910-FAC3-6F8B3161D691,1581F6N8C23AR0035EE6,,,,,,,,,
10/11/2024,4:49:14.33 AM,0m 1.7s,1.7,-33.7548332328674,150.738137709486,0,0,0.3,103,0.1,0,0,0,0,0,0,0,0,5.1,0.1,125.5,125.5,,Manual Takeoff,Other,,32,5,True,,Air 3,True,False,,Smart,RC,True,True,False,,,True,,False,False,False,False,False,False,False,False,False,False,0,Follow Yaw,0,0,113,113,False,False,False,False,False,False,,True,Normal,100,100,1024,1024,1047,1024,C,False,False,False,False,False,0,False,False,False,False,46,14.554,1807,3991,14.554,False,3.636,3.639,3.64,3.639,0.004,False,False,3.881,102.6,102.3,102.5,,,,,,,,,Idle,,,,,,6,Go Home,True,True,True,False,False,False,False,False,False,False,False,False,-33.7548363904087,150.738129265704,2.8,,328.0,True,1,1,False,False,False,False,,True,False,False,,196.8,,16.4,41,,,,,Calm,False,False,,1.12.0,DJI Air 3,1581F6N8C23AR003,6K5FL8K211X7G9,6UZBLAV02102UE,6NVPLASDA003CY,162.9,1.7,242.7,25.499102,13.42164,0,0,DJI Air 3,1581F6N8C23AR003,6K5FL8K211X7G9,6UZBLAV02102UE,6NVPLASDA003CY,DJI Fly,,1.12.0,1FE95EF4-9D83-3910-FAC3-6F8B3161D691,1581F6N8C23AR0035EE6,,,,,,,,Flight mode changed to Manual Takeoff.,
10/11/2024,4:49:14.43 AM,0m 1.8s,1.8,-33.7548332331357,150.738137749231,0,0,0.3,103,0.1,0,0,0,0,0,0,0,0,5.1,0.1,125.5,125.5,,Manual Takeoff,Other,,32,5,True,,Air 3,True,False,,Smart,RC,True,True,False,,,True,,False,False,False,False,False,False,False,False,False,False,0,Follow Yaw,0,0,113,113,False,False,False,False,False,False,,True,Normal,100,100,1024,1024,1024,1024,C,False,False,False,False,False,0,False,False,False,False,46,14.554,1807,3991,14.554,False,3.636,3.639,3.64,3.639,0.004,False,False,3.881,102.6,102.3,102.5,,,,,,,,,Idle,,,,,,6,Go Home,True,True,True,False,False,False,False,False,False,False,False,False,-33.7548363904087,150.738129265704,2.8,,328.0,True,1,1,False,False,False,False,,True,False,False,,196.8,,16.4,41,,,,,Calm,False,False,,1.12.0,DJI Air 3,1581F6N8C23AR003,6K5FL8K211X7G9,6UZBLAV02102UE,6NVPLASDA003CY,162.9,1.7,242.7,25.499102,13.42164,0,0,DJI Air 3,1581F6N8C23AR003,6K5FL8K211X7G9,6UZBLAV02102UE,6NVPLASDA003CY,DJI Fly,,1.12.0,1FE95EF4-9D83-3910-FAC3-6F8B3161D691,1581F6N8C23AR0035EE6,,,,,,,,,
10/11/2024,4:49:14.53 AM,0m 1.9s,1.9,-33.754833234817,150.738137727881,0,0,0.3,103,0.1,0,0,0,0,0,0,0,0,5.1,0,125.5,125.5,,Manual Takeoff,Other,,32,5,True,,Air 3,True,False,,Smart,RC,True,True,False,,,True,,False,False,False,False,False,False,False,False,False,False,0,Follow Yaw,0,0,113,113,False,False,False,False,False,False,,True,Normal,100,100,1024,1024,1024,1024,C,False,False,False,False,False,0,False,False,False,False,46,14.554,1807,3991,14.554,False,3.636,3.639,3.64,3.639,0.004,False,False,3.881,102.6,102.3,102.5,,,,,,,,,Idle,,,,,,6,Go Home,True,True,True,False,False,False,False,False,False,False,False,False,-33.7548363904087,150.738129265704,2.8,,328.0,True,1,1,False,False,False,False,,True,False,False,,196.8,,16.4,41,,,,,Calm,False,False,,1.12.0,DJI Air 3,1581F6N8C23AR003,6K5FL8K211X7G9,6UZBLAV02102UE,6NVPLASDA003CY,162.9,1.7,242.7,25.499102,13.42164,0,0,DJI Air 3,1581F6N8C23AR003,6K5FL8K211X7G9,6UZBLAV02102UE,6NVPLASDA003CY,DJI Fly,,1.12.0,1FE95EF4-9D83-3910-FAC3-6F8B3161D691,1581F6N8C23AR0035EE6,,,,,,,,,
10/11/2024,4:49:14.63 AM,0m 2.0s,2.0,-33.7548332143336,150.738137860478,0,0,0.3,103,0.1,0,0,0,0,0,0,0,0,5.1,0,125.6,125.6,,Manual Takeoff,Other,,32,5,True,,Air 3,True,False,,Smart,RC,True,True,False,,,True,,False,False,False,False,False,False,False,False,False,False,0,Follow Yaw,0,0,113,113,False,False,False,False,False,False,,True,Normal,100,100,1024,1024,1024,1024,C,False,False,False,False,False,0,False,False,False,False,46,14.554,1807,3991,14.554,False,3.636,3.639,3.64,3.639,0.004,False,False,3.881,102.6,102.3,102.5,,,,,,,,,Idle,,,,,,6,Go Home,True,True,True,False,False,False,False,False,False,False,False,False,-33.7548363904087,150.738129265704,2.8,,328.0,True,1,1,False,False,False,False,,True,False,False,,196.8,,16.4,41,,,,,Calm,False,False,,1.12.0,DJI Air 3,1581F6N8C23AR003,6K5FL8K211X7G9,6UZBLAV02102UE,6NVPLASDA003CY,162.9,1.7,242.7,25.499102,13.42164,0,0,DJI Air 3,1581F6N8C23AR003,6K5FL8K211X7G9,6UZBLAV02102UE,6NVPLASDA003CY,DJI Fly,,1.12.0,1FE95EF4-9D83-3910-FAC3-6F8B3161D691,1581F6N8C23AR0035EE6,,,,,,,,,
10/11/2024,4:49:14.73 AM,0m 2.1s,2.1,-33.7548332115632,150.738137898408,0,0,0.3,103,0.2,0,0,0,0,0,0,0,0,5.1,0,125.7,125.7,,Manual Takeoff,Other,,32,5,True,,Air 3,True,False,,Smart,RC,True,True,False,,,True,,False,False,False,False,False,False,False,False,False,False,0,Follow Yaw,0,0,113.1,113.1,False,False,False,False,False,False,,True,Normal,100,100,1024,1024,1024,1024,C,False,False,False,False,False,0,False,False,False,False,46,14.554,1807,3991,14.554,False,3.636,3.639,3.64,3.639,0.004,False,False,3.881,102.6,102.3,102.5,,,,,,,,,Idle,,,,,,6,Go Home,True,True,True,False,False,False,False,False,False,False,False,False,-33.7548363904087,150.738129265704,2.8,,328.0,True,1,1,False,False,False,False,,True,False,False,,196.8,,16.4,41,,,,,Calm,False,False,,1.12.0,DJI Air 3,1581F6N8C23AR003,6K5FL8K211X7G9,6UZBLAV02102UE,6NVPLASDA003CY,162.9,1.7,242.7,25.499102,13.42164,0,0,DJI Air 3,1581F6N8C23AR003,6K5FL8K211X7G9,6UZBLAV02102UE,6NVPLASDA003CY,DJI Fly,,1.12.0,1FE95EF4-9D83-3910-FAC3-6F8B3161D691,1581F6N8C23AR0035EE6,,,,,,,,,
10/11/2024,4:49:14.83 AM,0m 2.2s,2.2,-33.7548332225216,150.738137848658,0,0,0.3,103,0.2,0,0,0,0,0,0,0,0,5.1,0,125.7,125.7,,Manual Takeoff,Other,,32,5,True,,Air 3,True,False,,Smart,RC,True,True,False,,,True,,False,False,False,False,False,False,False,False,False,False,0,Follow Yaw,0,0,113.1,113.1,False,False,False,False,False,False,,True,Normal,100,100,1024,1024,1024,1024,C,False,False,False,False,False,0,False,False,False,False,46,14.554,1807,3991,14.554,False,3.636,3.639,3.64,3.639,0.004,False,False,3.881,102.6,102.3,102.5,,,,,,,,,Idle,,,,,,6,Go Home,True,True,True,False,False,False,False,False,False,False,False,False,-33.7548363904087,150.738129265704,2.8,,328.0,True,1,1,False,False,False,False,,True,False,False,,196.8,,16.4,41,,,,,Calm,False,False,,1.12.0,DJI Air 3,1581F6N8C23AR003,6K5FL8K211X7G9,6UZBLAV02102UE,6NVPLASDA003CY,162.9,1.7,242.7,25.499102,13.42164,0,0,DJI Air 3,1581F6N8C23AR003,6K5FL8K211X7G9,6UZBLAV02102UE,6NVPLASDA003CY,DJI Fly,,1.12.0,1FE95EF4-9D83-3910-FAC3-6F8B3161D691,1581F6N8C23AR0035EE6,,,,,,,,,
10/11/2024,4:49:14.93 AM,0m 2.3s,2.3,-33.7548332210502,150.738137864818,0,0,0.3,103,0.2,0,0,0,0,0,0,0,0,5.1,0,125.8,125.8,,Manual Takeoff,Other,,32,5,True,,Air 3,True,False,,Smart,RC,True,True,False,,,True,,False,False,False,False,False,False,False,False,False,False,0,Follow Yaw,0,0,113.3,113.3,False,False,False,False,False,False,,True,Normal,100,100,1024,1024,1024,1024,C,False,False,False,False,False,0,False,False,False,False,46,14.554,1807,3991,14.554,False,3.636,3.639,3.64,3.639,0.004,False,False,3.881,102.6,102.3,102.5,,,,,,,,,Idle,,,,,,6,Go Home,True,True,True,False,False,False,False,False,False,False,False,False,-33.7548363904087,150.738129265704,2.8,,328.0,True,1,1,False,False,False,False,,True,False,False,,196.8,,16.4,41,,,,,Calm,False,False,,1.12.0,DJI Air 3,1581F6N8C23AR003,6K5FL8K211X7G9,6UZBLAV02102UE,6NVPLASDA003CY,162.9,1.7,242.7,25.499102,13.42164,0,0,DJI Air 3,1581F6N8C23AR003,6K5FL8K211X7G9,6UZBLAV02102UE,6NVPLASDA003CY,DJI Fly,,1.12.0,1FE95EF4-9D83-3910-FAC3-6F8B3161D691,1581F6N8C23AR0035EE6,,,,,,,,,
10/11/2024,4:49:15.03 AM,0m 2.4s,2.4,-33.7548332372404,150.738137815382,0,0,0.3,103,0.2,0,0,0,0,0,0,0,0,5.1,0,125.8,125.8,,Manual Takeoff,Other,,32,5,True,,Air 3,True,False,,Smart,RC,True,True,False,,,True,,False,False,False,False,False,False,False,False,False,False,0,Follow Yaw,0,0,113.3,113.3,False,False,False,False,False,False,,True,Normal,100,100,1024,1024,1024,1024,C,False,False,False,False,False,0,False,False,False,False,46,14.554,1807,3991,14.554,False,3.636,3.639,3.64,3.639,0.004,False,False,3.881,102.6,102.3,102.5,,,,,,,,,Idle,,,,,,6,Go Home,True,True,True,False,False,False,False,False,False,False,False,False,-33.7548363904087,150.738129265704,2.8,,328.0,True,1,1,False,False,False,False,,True,False,False,,196.8,,16.4,41,,,,,Calm,False,False,,1.12.0,DJI Air 3,1581F6N8C23AR003,6K5FL8K211X7G9,6UZBLAV02102UE,6NVPLASDA003CY,162.9,1.7,242.7,25.499102,13.42164,0,0,DJI Air 3,1581F6N8C23AR003,6K5FL8K211X7G9,6UZBLAV02102UE,6NVPLASDA003CY,DJI Fly,,1.12.0,1FE95EF4-9D83-3910-FAC3-6F8B3161D691,1581F6N8C23AR0035EE6,,,,,,,,,
10/11/2024,4:49:15.13 AM,0m 2.5s,2.5,-33.7548332385512,150.738137822363,0,0,0.3,103,0.2,0,0,0,0,0,0,0,0,5.1,0,125.9,125.9,,Manual Takeoff,Other,,32,5,True,,Air 3,True,False,,Smart,RC,True,True,False,,,True,,False,False,False,False,False,False,False,False,False,False,0,Follow Yaw,0,0,113.4,113.4,False,False,False,False,False,False,,True,Normal,100,100,1024,1024,1024,1024,C,False,False,False,False,False,0,False,False,False,False,46,14.554,1807,3991,14.554,False,3.636,3.639,3.64,3.639,0.004,False,False,3.881,102.6,102.3,102.5,,,,,,,,,Idle,,,,,,6,Go Home,True,True,True,False,False,False,False,False,False,False,False,False,-33.7548363904087,150.738129265704,2.8,,328.0,True,1,1,False,False,False,False,,True,False,False,,196.8,,16.4,41,,,,,Calm,False,False,,1.12.0,DJI Air 3,1581F6N8C23AR003,6K5FL8K211X7G9,6UZBLAV02102UE,6NVPLASDA003CY,162.9,1.7,242.7,25.499102,13.42164,0,0,DJI Air 3,1581F6N8C23AR003,6K5FL8K211X7G9,6UZBLAV02102UE,6NVPLASDA003CY,DJI Fly,,1.12.0,1FE95EF4-9D83-3910-FAC3-6F8B3161D691,1581F6N8C23AR0035EE6,,,,,,,,,
10/11/2024,4:49:15.23 AM,0m 2.6s,2.6,-33.7548332346617,150.738137822324,0,0,0.3,103,0.2,0,0,0,0,0,0,0,0,5.1,0,126,126,,Manual Takeoff,Other,,32,5,True,,Air 3,True,False,,Smart,RC,True,True,False,,,True,,False,False,False,False,False,False,False,False,False,False,0,Follow Yaw,0,0,113.5,113.5,False,False,False,False,False,False,,True,Normal,100,100,1024,1024,1024,1024,C,False,False,False,False,False,0,False,False,False,False,46,14.585,1806,3991,14.585,False,3.647,3.648,3.646,3.645,0.004,False,False,1.883,102.6,102.3,102.5,,,,,,,,,Idle,,,,,,6,Go Home,True,True,True,False,False,False,False,False,False,False,False,False,-33.7548363904087,150.738129265704,2.8,,328.0,True,1,1,False,False,False,False,,True,False,False,,196.8,,16.4,41,,,,,Calm,False,False,,1.12.0,DJI Air 3,1581F6N8C23AR003,6K5FL8K211X7G9,6UZBLAV02102UE,6NVPLASDA003CY,162.9,1.7,242.7,25.499102,13.42164,0,0,DJI Air 3,1581F6N8C23AR003,6K5FL8K211X7G9,6UZBLAV02102UE,6NVPLASDA003CY,DJI Fly,,1.12.0,1FE95EF4-9D83-3910-FAC3-6F8B3161D691,1581F6N8C23AR0035EE6,,,,,,,,,
10/11/2024,4:49:15.33 AM,0m 2.7s,2.7,-33.7548332360496,150.738137827199,0,0,0.3,103,0.2,0,0,0,0,0,0,0,0,5.1,0,126,126,,Manual Takeoff,Other,,32,5,True,,Air 3,True,False,,Smart,RC,True,True,False,,,True,,False,False,False,False,False,False,False,False,False,False,0,Follow Yaw,0,0,113.5,113.5,False,False,False,False,False,False,,True,Normal,100,100,1024,1024,1024,1024,C,False,False,False,False,False,0,False,False,False,False,46,14.585,1806,3991,14.585,False,3.647,3.648,3.646,3.645,0.004,False,False,1.883,102.6,102.3,102.5,,,,,,,,,Idle,,,,,,6,Go Home,True,True,True,False,False,False,False,False,False,False,False,False,-33.7548363904087,150.738129265704,2.8,,328.0,True,1,1,False,False,False,False,,True,False,False,,196.8,,16.4,41,,,,,Calm,False,False,,1.12.0,DJI Air 3,1581F6N8C23AR003,6K5FL8K211X7G9,6UZBLAV02102UE,6NVPLASDA003CY,162.9,1.7,242.7,25.499102,13.42164,0,0,DJI Air 3,1581F6N8C23AR003,6K5FL8K211X7G9,6UZBLAV02102UE,6NVPLASDA003CY,DJI Fly,,1.12.0,1FE95EF4-9D83-3910-FAC3-6F8B3161D691,1581F6N8C23AR0035EE6,,,,,,,,,
10/11/2024,4:49:15.43 AM,0m 2.8s,2.8,-33.7548332231272,150.738137821924,0,0,0.3,103,0.2,0,0,0,0,0,0,0,0,5.1,0,125.9,125.9,,Manual Takeoff,Other,,32,5,True,,Air 3,True,False,,Smart,RC,True,True,False,,,True,,False,False,False,False,False,False,False,False,False,False,0,Follow Yaw,0,0,113.6,113.6,False,False,False,False,False,False,,True,Normal,100,100,1024,1024,1333,1024,C,False,False,False,False,False,0,False,False,False,False,46,14.585,1806,3991,14.585,False,3.647,3.648,3.646,3.645,0.004,False,False,1.883,102.6,102.3,102.5,,,,,,,,,Idle,,,,,,6,Go Home,True,True,True,False,False,False,False,False,False,False,False,False,-33.7548363904087,150.738129265704,2.8,,328.0,True,1,1,False,False,False,False,,True,False,False,,196.8,,16.4,41,,,,,Calm,False,False,,1.12.0,DJI Air 3,1581F6N8C23AR003,6K5FL8K211X7G9,6UZBLAV02102UE,6NVPLASDA003CY,162.9,1.7,242.7,25.499102,13.42164,0,0,DJI Air 3,1581F6N8C23AR003,6K5FL8K211X7G9,6UZBLAV02102UE,6NVPLASDA003CY,DJI Fly,,1.12.0,1FE95EF4-9D83-3910-FAC3-6F8B3161D691,1581F6N8C23AR0035EE6,,,,,,,,,
10/11/2024,4:49:15.53 AM,0m 2.9s,2.9,-33.7548332227417,150.738137847663,0,0,0.3,103,0.2,0,0,0,0,0,0,0,0,5,0,126.3,126.3,,Manual Takeoff,Other,,32,5,True,,Air 3,True,False,,Smart,RC,True,True,False,,,True,,False,False,False,False,False,False,False,False,False,False,0,Follow Yaw,0,0,113.7,113.7,False,False,False,False,False,False,,True,Normal,100,100,1024,1024,1684,1024,C,False,False,False,False,False,0,False,False,False,False,46,14.585,1806,3991,14.585,False,3.647,3.648,3.646,3.645,0.004,False,False,1.883,102.6,102.3,102.5,,,,,,,,,Idle,,,,,,6,Go Home,True,True,True,False,False,False,False,False,False,False,False,False,-33.7548363904087,150.738129265704,2.8,,328.0,True,1,1,False,False,False,False,,True,False,False,,196.8,,16.4,41,,,,,Calm,False,False,,1.12.0,DJI Air 3,1581F6N8C23AR003,6K5FL8K211X7G9,6UZBLAV02102UE,6NVPLASDA003CY,162.9,1.7,242.7,25.499102,13.42164,0,0,DJI Air 3,1581F6N8C23AR003,6K5FL8K211X7G9,6UZBLAV02102UE,6NVPLASDA003CY,DJI Fly,,1.12.0,1FE95EF4-9D83-3910-FAC3-6F8B3161D691,1581F6N8C23AR0035EE6,,,,,,,,,
10/11/2024,4:49:15.63 AM,0m 3.0s,3.0,-33.7548332370053,150.738137862934,0,0,0.3,103,0.2,0,0,0,0,0,0,0,0,4.9,0,126.6,126.6,,Manual Takeoff,Other,,32,5,True,,Air 3,True,False,,Smart,RC,True,True,False,,,True,,False,False,False,False,False,False,False,False,False,False,0,Follow Yaw,0,0,113.8,113.8,False,False,False,False,False,False,,True,Normal,100,100,1024,1024,1684,1024,C,False,False,False,False,False,0,False,False,False,False,46,14.585,1806,3991,14.585,False,3.647,3.648,3.646,3.645,0.004,False,False,1.883,102.6,102.3,102.5,,,,,,,,,Idle,,,,,,6,Go Home,True,True,True,False,False,False,False,False,False,False,False,False,-33.7548363904087,150.738129265704,2.8,,328.0,True,1,1,False,False,False,False,,True,False,False,,196.8,,16.4,41,,,,,Calm,False,False,,1.12.0,DJI Air 3,1581F6N8C23AR003,6K5FL8K211X7G9,6UZBLAV02102UE,6NVPLASDA003CY,162.9,1.7,242.7,25.499102,13.42164,0,0,DJI Air 3,1581F6N8C23AR003,6K5FL8K211X7G9,6UZBLAV02102UE,6NVPLASDA003CY,DJI Fly,,1.12.0,1FE95EF4-9D83-3910-FAC3-6F8B3161D691,1581F6N8C23AR0035EE6,,,,,,,,,
10/11/2024,4:49:15.73 AM,0m 3.1s,3.1,-33.7548332402373,150.738137921814,0,0,0.3,103,0.2,0,0,0,0,0,0,0,0,4.8,0,126.8,126.8,,Manual Takeoff,Other,,32,5,True,,Air 3,True,False,,Smart,RC,True,True,False,,,True,,False,False,False,False,False,False,False,False,False,False,0,Follow Yaw,0,0,114,114,False,False,False,False,False,False,,True,Normal,100,100,1024,1024,1684,1024,C,False,False,False,False,False,0,False,False,False,False,46,14.585,1806,3991,14.585,False,3.647,3.648,3.646,3.645,0.004,False,False,1.883,102.6,102.3,102.5,,,,,,,,,Idle,,,,,,6,Go Home,True,True,True,False,False,False,False,False,False,False,False,False,-33.7548363904087,150.738129265704,2.8,,328.0,True,1,1,False,False,False,False,,True,False,False,,196.8,,16.4,41,,,,,Calm,False,False,,1.12.0,DJI Air 3,1581F6N8C23AR003,6K5FL8K211X7G9,6UZBLAV02102UE,6NVPLASDA003CY,162.9,1.7,242.7,25.499102,13.42164,0,0,DJI Air 3,1581F6N8C23AR003,6K5FL8K211X7G9,6UZBLAV02102UE,6NVPLASDA003CY,DJI Fly,,1.12.0,1FE95EF4-9D83-3910-FAC3-6F8B3161D691,1581F6N8C23AR0035EE6,,,,,,,,,
10/11/2024,4:49:15.83 AM,0m 3.2s,3.2,-33.7548332267414,150.738137897068,0,0,0.3,103,0.2,0,0,0,0,0,0,0,0,4.7,0,126.8,126.8,,Manual Takeoff,Other,,32,5,True,,Air 3,True,False,,Smart,RC,True,True,False,,,True,,False,False,False,False,False,False,False,False,False,False,0,Follow Yaw,0,0,114.1,114.1,False,False,False,False,False,False,,True,Normal,100,100,1024,1024,1684,1024,C,False,False,False,False,False,0,False,False,False,False,46,14.585,1806,3991,14.585,False,3.647,3.648,3.646,3.645,0.004,False,False,1.883,102.6,102.3,102.5,,,,,,,,,Idle,,,,,,6,Go Home,True,True,True,False,False,False,False,False,False,False,False,False,-33.7548363904087,150.738129265704,2.8,,328.0,True,1,1,False,False,False,False,,True,False,False,,196.8,,16.4,41,,,,,Calm,False,False,,1.12.0,DJI Air 3,1581F6N8C23AR003,6K5FL8K211X7G9,6UZBLAV02102UE,6NVPLASDA003CY,162.9,1.7,242.7,25.499102,13.42164,0,0,DJI Air 3,1581F6N8C23AR003,6K5FL8K211X7G9,6UZBLAV02102UE,6NVPLASDA003CY,DJI Fly,,1.12.0,1FE95EF4-9D83-3910-FAC3-6F8B3161D691,1581F6N8C23AR0035EE6,,,,,,,,,
10/11/2024,4:49:15.93 AM,0m 3.3s,3.3,-33.7548332156032,150.73813798359,0,0,0.3,103,0.3,0,0,0,0,0,0,0,0,4.4,0,126.9,126.9,,Manual Takeoff,Other,,32,5,True,,Air 3,True,False,,Smart,RC,True,True,False,,,True,,False,False,False,False,False,False,False,False,False,False,0,Follow Yaw,0,0,114.1,114.1,False,False,False,False,False,False,,True,Normal,100,100,1024,1024,1684,1024,C,False,False,False,False,False,0,False,False,False,False,46,14.585,1806,3991,14.585,False,3.647,3.648,3.646,3.645,0.004,False,False,1.883,102.6,102.3,102.5,,,,,,,,,Idle,,,,,,6,Go Home,True,True,True,False,False,False,False,False,False,False,False,False,-33.7548363904087,150.738129265704,2.8,,328.0,True,1,1,False,False,False,False,,True,False,False,,196.8,,16.4,41,,,,,Calm,False,False,,1.12.0,DJI Air 3,1581F6N8C23AR003,6K5FL8K211X7G9,6UZBLAV02102UE,6NVPLASDA003CY,162.9,1.7,242.7,25.499102,13.42164,0,0,DJI Air 3,1581F6N8C23AR003,6K5FL8K211X7G9,6UZBLAV02102UE,6NVPLASDA003CY,DJI Fly,,1.12.0,1FE95EF4-9D83-3910-FAC3-6F8B3161D691,1581F6N8C23AR0035EE6,,,,,,,,,
10/11/2024,4:49:16.03 AM,0m 3.4s,3.4,-33.7548332095955,150.738137896343,0,0,0.3,103,0.3,0,0,0,0,0,0,0,0,2,0,126.6,126.6,,Manual Takeoff,Other,,31,5,True,,Air 3,True,False,,Smart,RC,True,True,False,,,True,,False,False,False,False,False,False,False,False,False,False,0,Follow Yaw,0,0,114.1,114.1,False,False,False,False,False,False,,True,Normal,100,100,1024,1024,1684,1024,C,False,False,False,False,False,0,False,False,False,False,46,14.585,1806,3991,14.585,False,3.647,3.648,3.646,3.645,0.004,False,False,1.883,102.6,102.3,102.5,,,,,,,,,Idle,,,,,,6,Go Home,True,True,True,False,False,False,False,False,False,False,False,False,-33.7548363904087,150.738129265704,2.8,,328.0,True,1,1,False,False,False,False,,True,False,False,,196.8,,16.4,41,,,,,Calm,False,False,,1.12.0,DJI Air 3,1581F6N8C23AR003,6K5FL8K211X7G9,6UZBLAV02102UE,6NVPLASDA003CY,162.9,1.7,242.7,25.499102,13.42164,0,0,DJI Air 3,1581F6N8C23AR003,6K5FL8K211X7G9,6UZBLAV02102UE,6NVPLASDA003CY,DJI Fly,,1.12.0,1FE95EF4-9D83-3910-FAC3-6F8B3161D691,1581F6N8C23AR0035EE6,,,,,,,,,
10/11/2024,4:49:16.13 AM,0m 3.5s,3.5,-33.7548331723844,150.738137905784,0,0,0.3,103,0.3,0,0,0,0,0,0,-0.223694,0,-0.8,0,126,126,,Manual Takeoff,Other,,31,5,True,,Air 3,True,False,,Smart,RC,False,True,False,,,True,,False,False,False,False,False,False,False,False,False,False,0,Follow Yaw,0,0,114,114,False,False,False,False,False,False,,True,Normal,100,100,1024,1024,1684,1014,C,False,False,False,False,False,0,False,False,False,False,46,14.585,1806,3991,14.585,False,3.647,3.648,3.646,3.645,0.004,False,False,1.883,102.6,102.3,102.5,,,,,,,,,Idle,,,,,,6,Go Home,True,True,True,False,False,False,False,False,False,False,False,False,-33.7548363904087,150.738129265704,2.8,,328.0,True,1,1,False,False,False,False,,True,False,False,,196.8,,16.4,41,E,NW,0.89,0.89,Calm,True,False,,1.12.0,DJI Air 3,1581F6N8C23AR003,6K5FL8K211X7G9,6UZBLAV02102UE,6NVPLASDA003CY,162.9,1.7,242.7,25.499102,13.42164,0,0,DJI Air 3,1581F6N8C23AR003,6K5FL8K211X7G9,6UZBLAV02102UE,6NVPLASDA003CY,DJI Fly,,1.12.0,1FE95EF4-9D83-3910-FAC3-6F8B3161D691,1581F6N8C23AR0035EE6,,,,,,,,,
10/11/2024,4:49:16.23 AM,0m 3.6s,3.6,-33.7548331230101,150.738137758012,0,0,0.3,103,0.4,0,0,0,0,0,0,-0.894776,0,-0.4,-0.9,126.5,126.5,,Manual Takeoff,Other,,32,5,True,,Air 3,True,False,,Smart,RC,False,True,False,,,True,,False,False,False,False,False,False,False,False,False,False,0,Follow Yaw,0,0,114.2,114.2,False,False,False,False,False,False,,True,Normal,100,100,1024,1024,1684,970,C,False,False,False,False,False,0,False,False,False,False,46,14.584,1806,3991,14.584,False,3.647,3.647,3.645,3.645,0.004,False,False,2.125,102.6,102.3,102.5,,,,,,,,,Idle,,,,,,6,Go Home,True,True,True,False,False,False,False,False,True,False,False,False,-33.7548363904087,150.738129265704,2.8,,328.0,True,1,1,False,False,False,False,,True,False,False,,196.8,,16.4,41,SW,E,0.89,0.89,Calm,False,True,,1.12.0,DJI Air 3,1581F6N8C23AR003,6K5FL8K211X7G9,6UZBLAV02102UE,6NVPLASDA003CY,162.9,1.7,242.7,25.499102,13.42164,0,0,DJI Air 3,1581F6N8C23AR003,6K5FL8K211X7G9,6UZBLAV02102UE,6NVPLASDA003CY,DJI Fly,,1.12.0,1FE95EF4-9D83-3910-FAC3-6F8B3161D691,1581F6N8C23AR0035EE6,,,,,,,,,
10/11/2024,4:49:16.33 AM,0m 3.7s,3.7,-33.7548330977758,150.73813773444,0.3,0.3,0.6,104,0.4,0,0,0,0,0,0,-1.342164,0,0.9,-1.7,126.6,126.6,,P-GPS (Brake),Other,,32,5,True,,Air 3,True,False,,Smart,RC,False,True,False,,,True,,False,False,False,False,False,False,False,False,False,False,0,Follow Yaw,0,0,114.2,114.2,False,False,False,False,False,False,,True,Normal,100,100,1024,1024,1684,967,C,False,False,False,False,False,0,False,False,False,False,46,14.474,1806,3991,14.474,False,3.622,3.622,3.617,3.613,0.009,False,False,2.125,102.6,102.3,102.5,,,,,,,,,Idle,,,,,,6,Go Home,True,True,True,False,False,False,False,False,True,False,False,False,-33.7548363904087,150.738129265704,2.8,,328.0,True,1,1,False,False,False,False,,True,False,False,,196.8,,16.4,41,NW,S,1.11,1.11,Calm,False,True,,1.12.0,DJI Air 3,1581F6N8C23AR003,6K5FL8K211X7G9,6UZBLAV02102UE,6NVPLASDA003CY,162.9,1.7,242.7,25.499102,13.42164,0,0,DJI Air 3,1581F6N8C23AR003,6K5FL8K211X7G9,6UZBLAV02102UE,6NVPLASDA003CY,DJI Fly,,1.12.0,1FE95EF4-9D83-3910-FAC3-6F8B3161D691,1581F6N8C23AR0035EE6,,,,,,,,Flight mode changed to P-GPS (Brake).,
10/11/2024,4:49:16.43 AM,0m 3.8s,3.8,-33.7548329962152,150.738137699406,0.6,0.6,0.6,104,0.4,0,0,0,0,0,0,-2.013246,0,1.6,-0.9,126.5,126.5,,P-GPS (Brake),Other,,32,5,True,,Air 3,True,False,,Smart,RC,False,True,False,,,True,,False,False,False,False,False,False,False,False,False,False,0,Follow Yaw,0,0,114.2,114.2,False,False,False,False,False,False,,True,Normal,100,100,1024,1024,1684,1011,C,False,False,False,False,False,0,False,False,False,False,46,14.474,1806,3991,14.474,False,3.622,3.622,3.617,3.613,0.009,False,False,2.125,102.6,102.3,102.5,,,,,,,,,Idle,,,,,,6,Go Home,True,True,True,False,False,False,False,False,True,False,False,False,-33.7548331857405,150.738137905788,0.0,,328.0,True,1,1,False,False,False,False,,True,False,False,,196.8,,16.4,41,W,SE,1.11,1.11,Calm,False,False,,1.12.0,DJI Air 3,1581F6N8C23AR003,6K5FL8K211X7G9,6UZBLAV02102UE,6NVPLASDA003CY,162.9,1.7,242.7,25.499102,13.42164,0,0,DJI Air 3,1581F6N8C23AR003,6K5FL8K211X7G9,6UZBLAV02102UE,6NVPLASDA003CY,DJI Fly,,1.12.0,1FE95EF4-9D83-3910-FAC3-6F8B3161D691,1581F6N8C23AR0035EE6,,,,,,,,Home Point Updated.,
10/11/2024,4:49:16.53 AM,0m 3.9s,3.9,-33.7548329017942,150.738137699182,0.9,0.9,0.9,104,0.4,0.223694,0.223694,0.223694,0.223694,0,0,-2.684328,0,1,0.2,126.5,126.5,359.8,P-GPS (Brake),Other,,32,5,True,,Air 3,True,False,,Smart,RC,False,True,False,,,True,,False,False,False,False,False,False,False,False,False,False,0,Follow Yaw,0,0,114.2,114.2,False,False,False,False,False,False,,True,Normal,100,100,1024,1024,1684,1013,C,False,False,False,False,False,0,False,False,False,False,46,14.474,1806,3991,14.474,False,3.622,3.622,3.617,3.613,0.009,False,False,2.125,102.6,102.3,102.5,,,,,,,,,Idle,,,,,,6,Go Home,True,True,True,False,False,False,False,False,True,False,False,False,-33.7548331857405,150.738137905788,0.1,,328.0,True,1,1,False,False,False,False,,True,False,False,,196.8,,16.4,41,SW,E,1.11,1.11,Calm,False,False,,1.12.0,DJI Air 3,1581F6N8C23AR003,6K5FL8K211X7G9,6UZBLAV02102UE,6NVPLASDA003CY,162.9,1.7,242.7,25.499102,13.42164,0,0,DJI Air 3,1581F6N8C23AR003,6K5FL8K211X7G9,6UZBLAV02102UE,6NVPLASDA003CY,DJI Fly,,1.12.0,1FE95EF4-9D83-3910-FAC3-6F8B3161D691,1581F6N8C23AR0035EE6,,,,,,,,,
10/11/2024,4:49:16.63 AM,0m 4.0s,4.0,-33.7548327604673,150.738137628819,1.3,1.3,1.6,105,0.5,0.223694,0.223694,0.223694,0.223694,0,0,-3.579104,0,-0.1,0.9,126.5,126.5,337.5,P-GPS (Brake),Other,,32,5,True,,Air 3,True,False,,Smart,RC,False,True,False,,,True,,False,False,False,False,False,False,False,False,False,False,0,Follow Yaw,0,0,114.2,114.2,False,False,False,False,False,False,,True,Normal,100,100,1024,1024,1684,1024,C,False,False,False,False,False,0,False,False,False,False,46,14.474,1806,3991,14.474,False,3.622,3.622,3.617,3.613,0.009,False,False,2.125,102.6,102.3,102.5,,,,,,,,,Idle,,,,,,6,Go Home,True,True,True,False,False,False,False,False,True,False,False,False,-33.7548331857405,150.738137905788,0.1,,328.0,True,1,1,False,False,False,False,,True,False,False,,196.8,,16.4,41,S,NE,1.11,1.11,Calm,True,False,,1.12.0,DJI Air 3,1581F6N8C23AR003,6K5FL8K211X7G9,6UZBLAV02102UE,6NVPLASDA003CY,162.9,1.7,242.7,25.499102,13.42164,0,0,DJI Air 3,1581F6N8C23AR003,6K5FL8K211X7G9,6UZBLAV02102UE,6NVPLASDA003CY,DJI Fly,,1.12.0,1FE95EF4-9D83-3910-FAC3-6F8B3161D691,1581F6N8C23AR0035EE6,,,,,,,,,
10/11/2024,4:49:16.73 AM,0m 4.1s,4.1,-33.7548326578787,150.738137596842,1.9,1.9,2.2,105,0.5,0.223694,0.223694,0.223694,0.223694,0,0,-4.47388,0,-0.8,1,126.8,126.8,345.4,P-GPS (Brake),Other,,32,5,True,,Air 3,True,False,,Smart,RC,False,True,False,,,True,,False,False,False,False,False,False,False,False,False,False,0,Follow Yaw,0,0,114.2,114.2,False,False,False,False,False,False,,True,Normal,100,100,1024,1024,1684,947,C,False,False,False,False,False,0,False,False,False,False,46,14.474,1806,3991,14.474,False,3.622,3.622,3.617,3.613,0.009,False,False,2.125,102.6,102.3,102.5,,,,,,,,,Idle,,,,,,6,Go Home,True,True,True,False,False,False,False,False,True,False,False,False,-33.7548331857405,150.738137905788,0.2,,328.0,True,1,1,False,False,False,False,,True,False,False,,196.8,,16.4,41,SE,N,1.11,1.11,Calm,True,False,,1.12.0,DJI Air 3,1581F6N8C23AR003,6K5FL8K211X7G9,6UZBLAV02102UE,6NVPLASDA003CY,162.9,1.7,242.7,25.499102,13.42164,0,0,DJI Air 3,1581F6N8C23AR003,6K5FL8K211X7G9,6UZBLAV02102UE,6NVPLASDA003CY,DJI Fly,,1.12.0,1FE95EF4-9D83-3910-FAC3-6F8B3161D691,1581F6N8C23AR0035EE6,,,,,,,,,
10/11/2024,4:49:16.82 AM,0m 4.2s,4.2,-33.7548326851156,150.738137553686,2.9,2.9,3.2,106,0.6,0,0.223694,0,0.223694,0,0,-5.59235,0,-0.9,0.6,127.3,127.3,,P-GPS (Brake),Other,,32,5,True,,Air 3,True,False,,Smart,RC,False,True,False,,,True,,False,False,False,False,False,False,False,False,False,False,0,Follow Yaw,0,0,114.1,114.1,False,False,False,False,False,False,,True,Normal,100,100,1024,1024,1684,940,C,False,False,False,False,False,0,False,False,False,False,46,14.474,1806,3991,14.474,False,3.622,3.622,3.617,3.613,0.009,False,False,2.125,102.6,102.3,102.5,,,,,,,,,Idle,,,,,,6,Go Home,True,True,True,False,False,False,False,False,True,False,False,False,-33.7548331857405,150.738137905788,0.2,,328.0,True,1,1,False,False,False,False,,True,False,False,,196.8,,16.4,41,W,SE,1.11,1.11,Calm,False,True,,1.12.0,DJI Air 3,1581F6N8C23AR003,6K5FL8K211X7G9,6UZBLAV02102UE,6NVPLASDA003CY,162.9,1.7,242.7,25.499102,13.42164,0,0,DJI Air 3,1581F6N8C23AR003,6K5FL8K211X7G9,6UZBLAV02102UE,6NVPLASDA003CY,DJI Fly,,1.12.0,1FE95EF4-9D83-3910-FAC3-6F8B3161D691,1581F6N8C23AR0035EE6,,,,,,,,,
10/11/2024,4:49:16.93 AM,0m 4.3s,4.3,-33.7548326678229,150.738137541666,3.9,3.9,3.9,107,0.6,0,0.223694,0,0.223694,0,0,-6.71082,0,-0.5,0.3,127.4,127.4,,P-GPS (Brake),Other,,32,5,True,,Air 3,True,False,,Smart,RC,False,True,False,,,True,,False,False,False,False,False,False,False,False,False,False,0,Follow Yaw,0,0,114.1,114.1,False,False,False,False,False,False,,True,Normal,100,100,1024,1024,1684,960,C,False,False,False,False,False,0,False,False,False,False,46,14.474,1806,3991,14.474,False,3.622,3.622,3.617,3.613,0.009,False,False,2.125,102.6,102.3,102.5,,,,,,,,,Idle,,,,,,6,Go Home,True,True,True,False,False,False,False,False,True,False,False,False,-33.7548331857405,150.738137905788,0.2,,328.0,True,1,1,False,False,False,False,,True,False,False,,196.8,,16.4,41,W,SE,1.11,1.11,Calm,False,True,,1.12.0,DJI Air 3,1581F6N8C23AR003,6K5FL8K211X7G9,6UZBLAV02102UE,6NVPLASDA003CY,162.9,1.7,242.7,25.499102,13.42164,0,0,DJI Air 3,1581F6N8C23AR003,6K5FL8K211X7G9,6UZBLAV02102UE,6NVPLASDA003CY,DJI Fly,,1.12.0,1FE95EF4-9D83-3910-FAC3-6F8B3161D691,1581F6N8C23AR0035EE6,,,,,,,,,
10/11/2024,4:49:17.03 AM,0m 4.4s,4.4,-33.7548328296947,150.738137326073,5.2,5.2,4.9,109,0.7,0,0.223694,0,0.223694,0,0,-7.605596,0,0,0.3,127.3,127.3,,P-GPS (Brake),Other,,32,5,True,,Air 3,True,False,,Smart,RC,False,True,False,,,True,,False,False,False,False,False,False,False,False,False,False,0,Follow Yaw,0,0,114,114,False,False,False,False,False,False,,True,Normal,100,100,1024,1024,1684,1024,C,False,False,False,False,False,0,False,False,False,False,46,14.474,1806,3991,14.474,False,3.622,3.622,3.617,3.613,0.009,False,False,2.125,102.6,102.3,102.5,,,,,,,,,Idle,,,,,,6,Go Home,True,True,True,False,False,False,False,False,True,False,False,False,-33.7548331857405,150.738137905788,0.2,,328.0,True,1,1,False,False,False,False,,True,False,False,,196.8,,16.4,41,W,SE,1.11,1.11,Calm,False,True,,1.12.0,DJI Air 3,1581F6N8C23AR003,6K5FL8K211X7G9,6UZBLAV02102UE,6NVPLASDA003CY,162.9,1.7,242.7,25.499102,13.42164,0,0,DJI Air 3,1581F6N8C23AR003,6K5FL8K211X7G9,6UZBLAV02102UE,6NVPLASDA003CY,DJI Fly,,1.12.0,1FE95EF4-9D83-3910-FAC3-6F8B3161D691,1581F6N8C23AR0035EE6,,,,,,,,,
10/11/2024,4:49:17.13 AM,0m 4.5s,4.5,-33.7548328350866,150.738137333941,6.5,6.5,6.2,110,0.7,0,0.223694,0,0.223694,0,0,-8.724066,0,0.4,0.3,127.3,127.3,,P-GPS (Brake),Other,,32,5,True,,Air 3,True,False,,Smart,RC,False,True,False,,,True,,False,False,False,False,False,False,False,False,False,False,0,Follow Yaw,0,0,114,114,False,False,False,False,False,False,,True,Normal,100,100,1024,1024,1572,1024,C,False,False,False,False,False,0,False,False,False,False,46,14.474,1806,3991,14.474,False,3.622,3.622,3.617,3.613,0.009,False,False,2.125,102.6,102.3,102.5,,,,,,,,,Idle,,,,,,6,Go Home,True,True,True,False,False,False,False,False,True,False,False,False,-33.7548331857405,150.738137905788,0.2,,328.0,True,1,1,False,False,False,False,,True,False,False,,196.8,,16.4,41,SW,E,1.11,1.11,Calm,False,False,,1.12.0,DJI Air 3,1581F6N8C23AR003,6K5FL8K211X7G9,6UZBLAV02102UE,6NVPLASDA003CY,162.9,1.7,242.7,25.499102,13.42164,0,0,DJI Air 3,1581F6N8C23AR003,6K5FL8K211X7G9,6UZBLAV02102UE,6NVPLASDA003CY,DJI Fly,,1.12.0,1FE95EF4-9D83-3910-FAC3-6F8B3161D691,1581F6N8C23AR0035EE6,,,,,,,,,
10/11/2024,4:49:17.23 AM,0m 4.6s,4.6,-33.7548326818665,150.738137181725,8.2,8.2,7.5,112,0.7,0,0.223694,0,0.223694,0,0,-9.618842,0,0.4,0.2,127.1,127.1,,P-GPS (Brake),Other,,32,5,True,,Air 3,True,False,,Smart,RC,False,True,False,,,True,,False,False,False,False,False,False,False,False,False,False,0,Follow Yaw,0,0,114,114,False,False,False,False,False,False,,True,Normal,100,100,1024,1024,1572,1024,C,False,False,False,False,False,0,False,False,False,False,46,14.315,1804,3991,14.315,False,3.583,3.582,3.577,3.573,0.01,False,False,6.33,102.6,102.3,102.5,,,,,,,,,Idle,,,,,,6,Go Home,True,True,True,False,False,False,False,False,True,False,False,False,-33.7548331857405,150.738137905788,0.2,,328.0,True,1,1,False,False,False,False,,True,False,False,,196.8,,16.4,41,SW,E,1.11,1.11,Calm,False,False,,1.12.0,DJI Air 3,1581F6N8C23AR003,6K5FL8K211X7G9,6UZBLAV02102UE,6NVPLASDA003CY,162.9,1.7,242.7,25.499102,13.42164,0,0,DJI Air 3,1581F6N8C23AR003,6K5FL8K211X7G9,6UZBLAV02102UE,6NVPLASDA003CY,DJI Fly,,1.12.0,1FE95EF4-9D83-3910-FAC3-6F8B3161D691,1581F6N8C23AR0035EE6,,,,,,,,,
10/11/2024,4:49:17.33 AM,0m 4.7s,4.7,-33.7548326480415,150.738137136041,9.8,9.8,9.1,113,0.7,0,0.223694,0,0.223694,0,0,-10.737312,0,0.2,0.2,127.1,127.1,,P-GPS (Brake),Other,,32,5,True,,Air 3,True,False,,Smart,RC,False,True,False,,,True,,False,False,False,False,False,False,False,False,False,False,0,Follow Yaw,0,0,114,114,False,False,False,False,False,False,,True,Normal,100,100,1024,1024,1024,1024,C,False,False,False,False,False,0,False,False,False,False,46,14.315,1804,3991,14.315,False,3.583,3.582,3.577,3.573,0.01,False,False,6.33,102.6,102.3,102.5,,,,,,,,,Idle,,,,,,6,Go Home,True,True,True,False,False,False,False,False,True,False,False,False,-33.7548331857405,150.738137905788,0.3,,328.0,True,1,1,False,False,False,False,,True,False,False,,196.8,,16.4,41,W,SE,1.11,1.11,Calm,False,True,,1.12.0,DJI Air 3,1581F6N8C23AR003,6K5FL8K211X7G9,6UZBLAV02102UE,6NVPLASDA003CY,162.9,1.7,242.7,25.499102,13.42164,0,0,DJI Air 3,1581F6N8C23AR003,6K5FL8K211X7G9,6UZBLAV02102UE,6NVPLASDA003CY,DJI Fly,,1.12.0,1FE95EF4-9D83-3910-FAC3-6F8B3161D691,1581F6N8C23AR0035EE6,,,,,,,,,
10/11/2024,4:49:17.43 AM,0m 4.8s,4.8,-33.7548326099705,150.738137068083,11.8,11.8,10.8,115,0.8,0,0.223694,0,0.223694,0,0,-10.961006,0,-0.2,0.3,127.3,127.3,,P-GPS (Brake),Other,,32,5,True,,Air 3,True,False,,Smart,RC,False,True,False,,,True,,False,False,False,False,False,False,False,False,False,False,0,Follow Yaw,0,0,114,114,False,False,False,False,False,False,,True,Normal,100,100,1024,1024,1024,1024,C,False,False,False,False,False,0,False,False,False,False,46,14.315,1804,3991,14.315,False,3.583,3.582,3.577,3.573,0.01,False,False,6.33,102.6,102.3,102.5,,,,,,,,,Idle,,,,,,6,Go Home,True,True,True,False,False,False,False,False,True,False,False,False,-33.7548331857405,150.738137905788,0.3,,328.0,True,1,1,False,False,False,False,,True,False,False,,196.8,,16.4,41,W,SE,1.11,1.11,Calm,False,True,,1.12.0,DJI Air 3,1581F6N8C23AR003,6K5FL8K211X7G9,6UZBLAV02102UE,6NVPLASDA003CY,162.9,1.7,242.7,25.499102,13.42164,0,0,DJI Air 3,1581F6N8C23AR003,6K5FL8K211X7G9,6UZBLAV02102UE,6NVPLASDA003CY,DJI Fly,,1.12.0,1FE95EF4-9D83-3910-FAC3-6F8B3161D691,1581F6N8C23AR0035EE6,,,,,,,,,
10/11/2024,4:49:17.54 AM,0m 4.9s,4.9,-33.7548326616621,150.738136674935,13.4,13.4,12.4,117,0.9,0,0.223694,0,0.223694,0,0,-10.737312,0,-0.7,0.3,127.4,127.4,,P-GPS (Brake),Other,,32,5,True,,Air 3,True,False,,Smart,RC,False,True,False,,,True,,False,False,False,False,False,False,False,False,False,False,0,Follow Yaw,0,0,114,114,False,False,False,False,False,False,,True,Normal,100,100,1024,1024,1024,1024,C,False,False,False,False,False,0,False,False,False,False,46,14.315,1804,3991,14.315,False,3.583,3.582,3.577,3.573,0.01,False,False,6.33,102.6,102.3,102.5,,,,,,,,,Idle,,,,,,6,Go Home,True,True,True,False,False,False,False,False,True,False,False,False,-33.7548331857405,150.738137905788,0.4,,328.0,True,1,1,False,False,False,False,,True,False,False,,196.8,,16.4,41,SW,E,1.11,1.11,Calm,False,True,,1.12.0,DJI Air 3,1581F6N8C23AR003,6K5FL8K211X7G9,6UZBLAV02102UE,6NVPLASDA003CY,162.9,1.7,242.7,25.499102,13.42164,0,0,DJI Air 3,1581F6N8C23AR003,6K5FL8K211X7G9,6UZBLAV02102UE,6NVPLASDA003CY,DJI Fly,,1.12.0,1FE95EF4-9D83-3910-FAC3-6F8B3161D691,1581F6N8C23AR0035EE6,,,,,,,,,
10/11/2024,4:49:17.64 AM,0m 5.0s,5.0,-33.7548326243942,150.738136641925,15.4,15.4,14.1,119,0.9,0,0.223694,0,0.223694,0,0,-10.06623,0,-0.9,0.3,127.4,127.4,,P-GPS (Brake),Other,,32,5,True,,Air 3,True,False,,Smart,RC,False,True,False,,,True,,False,False,False,False,False,False,False,False,False,False,0,Follow Yaw,0,0,114,114,False,False,False,False,False,False,,True,Normal,100,100,1024,1024,1024,1024,C,False,False,False,False,False,0,False,False,False,False,46,14.315,1804,3991,14.315,False,3.583,3.582,3.577,3.573,0.01,False,False,6.33,102.6,102.3,102.5,,,,,,,,,Idle,,,,,,6,Go Home,True,True,True,False,False,False,False,False,True,False,False,False,-33.7548331857405,150.738137905788,0.4,,328.0,True,1,1,False,False,False,False,,True,False,False,,196.8,,16.4,41,SW,E,1.11,1.11,Calm,False,False,,1.12.0,DJI Air 3,1581F6N8C23AR003,6K5FL8K211X7G9,6UZBLAV02102UE,6NVPLASDA003CY,162.9,1.7,242.7,25.499102,13.42164,0,0,DJI Air 3,1581F6N8C23AR003,6K5FL8K211X7G9,6UZBLAV02102UE,6NVPLASDA003CY,DJI Fly,,1.12.0,1FE95EF4-9D83-3910-FAC3-6F8B3161D691,1581F6N8C23AR0035EE6,,,,,,,,,
10/11/2024,4:49:17.74 AM,0m 5.1s,5.1,-33.7548325461757,150.738136628177,16.7,16.7,15.4,120,0.9,0,0.223694,0,0.223694,0,0,-9.171454,0,-0.9,0.4,127.5,127.5,,P-GPS (Brake),Other,,32,5,True,,Air 3,True,False,,Smart,RC,False,True,False,,,True,,False,False,False,False,False,False,False,False,False,False,0,Follow Yaw,0,0,114,114,False,False,False,False,False,False,,True,Normal,100,100,1024,1024,1024,1024,C,False,False,False,False,False,0,False,False,False,False,46,14.315,1804,3991,14.315,False,3.583,3.582,3.577,3.573,0.01,False,False,6.33,102.6,102.3,102.5,,,,,,,,,Idle,,,,,,6,Go Home,True,True,True,False,False,False,False,False,True,False,False,False,-33.7548331857405,150.738137905788,0.4,,328.0,True,1,1,False,False,False,False,,True,False,False,,196.8,,16.4,41,SW,E,1.11,1.11,Calm,False,False,,1.12.0,DJI Air 3,1581F6N8C23AR003,6K5FL8K211X7G9,6UZBLAV02102UE,6NVPLASDA003CY,162.9,1.7,242.7,25.499102,13.42164,0,0,DJI Air 3,1581F6N8C23AR003,6K5FL8K211X7G9,6UZBLAV02102UE,6NVPLASDA003CY,DJI Fly,,1.12.0,1FE95EF4-9D83-3910-FAC3-6F8B3161D691,1581F6N8C23AR0035EE6,,,,,,,,Home Point updated (Code: 3000001).,
10/11/2024,4:49:17.84 AM,0m 5.2s,5.2,-33.7548325239548,150.738136651901,18.0,18.0,16.4,121,0.9,0,0.223694,0,0.223694,0,0,-8.276678,0,-0.8,0.6,127.5,127.5,,P-GPS (Brake),Other,,32,5,True,,Air 3,True,False,,Smart,RC,False,True,False,,,True,,False,False,False,False,False,False,False,False,False,False,0,Follow Yaw,0,0,114,114,False,False,False,False,False,False,,True,Normal,100,100,1024,1024,1024,1024,C,False,False,False,False,False,0,False,False,False,False,46,14.315,1804,3991,14.315,False,3.583,3.582,3.577,3.573,0.01,False,False,6.33,102.6,102.3,102.5,,,,,,,,,Idle,,,,,,6,Go Home,True,True,True,False,False,False,False,False,True,False,False,False,-33.7548331857405,150.738137905788,0.4,,328.0,True,1,1,False,False,False,False,,True,False,False,,196.8,,16.4,41,SW,E,1.11,1.11,Calm,False,False,,1.12.0,DJI Air 3,1581F6N8C23AR003,6K5FL8K211X7G9,6UZBLAV02102UE,6NVPLASDA003CY,162.9,1.7,242.7,25.499102,13.42164,0,0,DJI Air 3,1581F6N8C23AR003,6K5FL8K211X7G9,6UZBLAV02102UE,6NVPLASDA003CY,DJI Fly,,1.12.0,1FE95EF4-9D83-3910-FAC3-6F8B3161D691,1581F6N8C23AR0035EE6,,,,,,,,,
